facilityid,#tenting,#group,#remote,#structured_RV,tenting,group,remote,structured_RV,totalbeforetax,numberofpeople,reservation_days,days_stay,FacilityName,FacilityLongitude,FacilityLatitude,tenting_demand,group_demand,remote_demand,structured_RV_demand,Year
231947,0.0,3.0,0.0,0.0,0.0,95.0,0.0,0.0,129.0,30.0,68.0,2.0,FALCON GROUP,-117.460278,33.655833,,31.666666666666668,,,2016
231949,0.0,1.0,0.0,0.0,0.0,31.0,0.0,0.0,94.0,40.0,84.0,2.0,CRESTLINE PICNIC GROUND,-116.864722,33.312778,,31.0,,,2016
231950,0.0,5.0,0.0,0.0,0.0,75.0,0.0,0.0,105.0,30.0,161.0,2.0,EL PRADO GROUP,-116.455556,32.886944,,15.0,,,2016
231951,0.0,3.0,0.0,0.0,0.0,55.0,0.0,0.0,219.0,50.0,136.0,2.0,HORSE HEAVEN GROUP,-116.44083300000001,32.8875,,18.333333333333332,,,2016
231952,0.0,1.0,0.0,0.0,0.0,4.0,0.0,0.0,339.0,82.5,166.5,3.0,WOODED HILL GROUP,-116.42,32.850278,,4.0,,,2016
231953,0.0,2.0,0.0,0.0,0.0,47.0,0.0,0.0,46.5,25.0,149.0,3.0,MIDDLE MEADOWS,-120.46611100000001,39.051111,,23.5,,,2016
231954,55.0,0.0,9.0,0.0,779.0,0.0,190.0,0.0,49.0,5.0,121.0,3.0,WRIGHTS LAKE,-120.23111100000001,38.849444,14.163636363636364,,21.11111111111111,,2016
231955,0.0,1.0,0.0,0.0,0.0,31.0,0.0,0.0,39.0,6.0,53.0,2.0,OBSIDIAN FLAT,-119.016667,37.733333,,31.0,,,2016
231956,0.0,3.0,0.0,0.0,0.0,1.0,0.0,0.0,0.0,2.0,156.0,1.0,AGNEW MEADOWS GROUP CAMP,-119.089444,37.682221999999996,,0.3333333333333333,,,2016
231957,0.0,4.0,0.0,0.0,0.0,103.0,0.0,0.0,144.14,20.0,164.0,3.0,PUMICE FLAT GROUP CAMP,-119.07361100000001,37.648889000000004,,25.75,,,2016
231958,35.0,1.0,3.0,1.0,1025.0,37.0,147.0,0.0,34.0,6.0,49.0,2.0,ARROYO SECO,-121.47861100000001,36.239722,29.285714285714285,37.0,49.0,0.0,2016
231959,37.0,3.0,0.0,0.0,2407.0,103.0,0.0,0.0,44.0,4.0,110.5,2.0,PLASKETT CREEK CAMPGROUND,-121.465,35.91722199999999,65.05405405405405,34.333333333333336,,,2016
231960,0.0,5.0,0.0,0.0,0.0,140.0,0.0,0.0,191.0,43.0,125.0,2.0,SAGE HILL,-119.79111100000001,34.539167,,28.0,,,2016
231961,6.0,0.0,2.0,0.0,362.0,0.0,54.0,0.0,49.0,5.0,27.0,2.0,UPPER OSO CAMPGROUND,-119.75388899999999,34.555833,60.333333333333336,,27.0,,2016
231963,10.0,1.0,0.0,14.0,335.0,14.0,0.0,0.0,49.0,4.0,73.0,3.0,LAKES BASIN,-120.65777800000001,39.666667,33.5,14.0,,0.0,2016
231964,0.0,1.0,0.0,0.0,0.0,23.0,0.0,0.0,209.0,25.0,45.0,2.0,Big Pine Equestrian Group Campground,-116.685556,34.316944,,23.0,,,2016
231965,0.0,1.0,0.0,0.0,0.0,31.0,0.0,0.0,249.0,40.0,104.0,2.0,BLUFF MESA GROUP CAMP,-116.975,34.223333000000004,,31.0,,,2016
231966,0.0,1.0,0.0,0.0,0.0,32.0,0.0,0.0,134.0,31.0,74.5,2.0,BOULDER GROUP CAMP,-116.975,34.223333000000004,,32.0,,,2016
231967,0.0,1.0,0.0,0.0,0.0,31.0,0.0,0.0,249.0,25.0,60.0,2.0,BUTTERCUP GROUP CAMP,-116.880278,34.235278,,31.0,,,2016
231968,0.0,1.0,0.0,0.0,0.0,33.0,0.0,0.0,249.0,30.0,95.0,2.0,DEER GROUP CAMP,-116.91416699999999,34.225,,33.0,,,2016
231969,15.0,0.0,0.0,7.0,312.0,0.0,0.0,0.0,29.0,5.0,36.0,2.0,FERN BASIN,-116.737778,33.788610999999996,20.8,,,0.0,2016
231971,0.0,1.0,0.0,0.0,0.0,27.0,0.0,0.0,119.0,25.0,42.0,2.0,IRONWOOD GROUP CAMP,-117.011944,34.303889,,27.0,,,2016
231972,0.0,1.0,0.0,0.0,0.0,25.0,0.0,0.0,249.0,25.0,52.0,2.0,JUNIPER SPRINGS GROUP CAMP,-116.71638899999999,34.219722,,25.0,,,2016
231973,16.0,0.0,0.0,9.0,454.0,0.0,0.0,0.0,29.0,4.0,40.5,2.0,MARION MOUNTAIN,-116.731944,33.791667,28.375,,,0.0,2016
231974,0.0,1.0,0.0,0.0,0.0,27.0,0.0,0.0,249.0,25.0,91.0,2.0,TANGLEWOOD GROUP CAMP,-116.86444399999999,34.292221999999995,,27.0,,,2016
231975,52.0,0.0,0.0,0.0,1793.0,0.0,0.0,0.0,67.0,6.0,40.0,2.0,BARTON FLATS,-116.874444,34.172222,34.48076923076923,,,,2016
231976,51.0,3.0,0.0,0.0,1389.0,87.0,0.0,0.0,63.0,6.0,29.0,2.0,SAN GORGONIO,-116.86638899999998,34.174444,27.235294117647058,29.0,,,2016
231977,0.0,1.0,0.0,0.0,0.0,31.0,0.0,0.0,162.0,40.0,127.0,2.0,PROSSER RANCH GROUP,-120.1552,39.378797,,31.0,,,2016
231978,81.0,0.0,0.0,41.0,1728.0,0.0,0.0,0.0,49.0,4.0,68.0,2.0,SANDBEACH,-123.959722,45.283889,21.333333333333332,,,0.0,2016
231979,183.0,6.0,0.0,0.0,552.0,40.0,0.0,0.0,39.0,3.0,32.0,2.0,BROKEN ARROW CAMPGROUND,-122.143056,43.134722,3.0163934426229506,6.666666666666667,,,2016
231980,232.0,0.0,0.0,6.0,6867.0,0.0,0.0,0.0,35.0,2.0,18.0,2.0,DIAMOND LAKE,-122.13305600000001,43.161111,29.599137931034484,,,0.0,2016
231981,60.0,1.0,0.0,0.0,250.0,12.0,0.0,0.0,49.0,4.0,35.0,3.0,POOLE CREEK,-122.197222,43.312778,4.166666666666667,12.0,,,2016
231983,0.0,1.0,0.0,0.0,0.0,18.0,0.0,0.0,69.0,13.5,105.0,2.0,ROARING RIVER (GROUP),-122.102222,43.935833,,18.0,,,2016
231984,0.0,1.0,0.0,0.0,0.0,14.0,0.0,0.0,89.0,13.5,115.0,2.5,HORSE CREEK GROUP CAMPGROUND,-122.153333,44.162222,,14.0,,,2016
231985,18.0,0.0,0.0,1.0,366.0,0.0,0.0,0.0,42.02,4.0,41.0,2.0,MCKENZIE BRIDGE,-122.175,44.175,20.333333333333332,,,0.0,2016
231986,59.0,0.0,0.0,1.0,1223.0,0.0,0.0,0.0,49.36,3.0,85.0,2.0,PARADISE IN OREGON,-122.09611100000001,44.186111,20.728813559322035,,,0.0,2016
231987,38.0,1.0,0.0,0.0,373.0,10.0,0.0,0.0,57.0,5.0,139.0,3.0,EAST SULLIVAN,-117.28277800000001,48.861389,9.81578947368421,10.0,,,2016
231988,18.0,1.0,0.0,0.0,205.0,10.0,0.0,0.0,41.0,4.0,49.0,3.0,NOISY CREEK,-117.27861100000001,48.783889,11.38888888888889,10.0,,,2016
231989,6.0,0.0,0.0,0.0,133.0,0.0,0.0,0.0,41.0,4.0,56.0,3.0,WEST SULLIVAN,-117.28833300000001,48.861389,22.166666666666668,,,,2016
232018,27.0,0.0,0.0,1.0,473.0,0.0,0.0,0.0,41.0,4.0,66.0,2.0,Beckler River Campground,-121.332222,47.735833,17.51851851851852,,,0.0,2016
232020,0.0,1.0,0.0,0.0,0.0,36.0,0.0,0.0,84.0,20.0,138.0,2.0,BLACK MOUNTAIN (SAN BERNARDINO),-116.73888899999999,33.834167,,36.0,,,2016
232021,0.0,4.0,0.0,0.0,0.0,21.0,0.0,0.0,195.0,45.0,25.0,2.0,BLACK OAK,-120.5875,38.904167,,5.25,,,2016
232022,16.0,0.0,0.0,19.0,451.0,0.0,0.0,0.0,29.0,4.0,30.0,2.0,BOULDER BASIN,-116.75388899999999,33.826389,28.1875,,,0.0,2016
232023,8.0,1.0,0.0,5.0,141.0,22.0,0.0,0.0,37.0,4.0,59.0,2.0,Boulder Creek Campground,-121.693611,48.714166999999996,17.625,22.0,,0.0,2016
232030,0.0,1.0,0.0,0.0,0.0,22.0,0.0,0.0,169.0,16.5,26.0,2.0,COON CREEK GROUP CAMPGROUND,-116.70944399999999,34.148889000000004,,22.0,,,2016
232031,0.0,1.0,0.0,0.0,0.0,30.0,0.0,0.0,219.0,50.0,95.5,2.0,COUNCIL,-116.881667,34.171389000000005,,30.0,,,2016
232032,0.0,4.0,0.0,0.0,0.0,61.0,0.0,0.0,255.0,24.0,111.0,3.0,COYOTE GROUP,-120.410556,39.135556,,15.25,,,2016
232033,41.0,0.0,0.0,2.0,544.0,0.0,0.0,0.0,49.0,4.0,50.0,2.0,The Dalles Campground,-121.583056,47.078333,13.268292682926829,,,0.0,2016
232035,23.0,1.0,0.0,10.0,591.0,27.0,0.0,301.0,49.0,4.0,60.0,2.0,Denny Creek Campground,-121.442778,47.411944,25.695652173913043,27.0,,30.1,2016
232037,68.0,0.0,0.0,19.0,3120.0,0.0,0.0,1003.0,62.0,5.0,40.0,2.0,DOGWOOD                                      ,-117.209167,34.235278,45.88235294117647,,,52.78947368421053,2016
232038,25.0,0.0,0.0,0.0,647.0,0.0,0.0,0.0,45.0,2.0,62.0,2.0,Douglas Fir Campground,-121.918056,48.902221999999995,25.88,,,,2016
232043,0.0,2.0,0.0,0.0,0.0,37.0,0.0,0.0,259.0,25.0,155.0,2.0,Excelsior Group Camp,-121.817778,48.906389000000004,,18.5,,,2016
232045,0.0,2.0,0.0,0.0,0.0,25.0,0.0,0.0,273.0,30.0,190.0,2.0,FORBES CREEK,-120.781944,39.131111,,12.5,,,2016
232047,68.0,0.0,0.0,1.0,646.0,0.0,0.0,0.0,57.0,4.0,27.0,2.0,FRENCH MEADOWS,-120.42388899999999,39.113889,9.5,,,0.0,2016
232048,0.0,3.0,0.0,0.0,0.0,40.0,0.0,0.0,255.0,25.0,102.5,3.0,GATES GROUP,-120.409167,39.141389000000004,,13.333333333333334,,,2016
232049,50.0,0.0,0.0,0.0,898.0,0.0,0.0,0.0,59.0,4.0,92.5,3.0,GERLE CREEK,-120.391667,38.975,17.96,,,,2016
232052,31.0,0.0,0.0,0.0,870.0,0.0,0.0,0.0,47.0,4.0,31.0,2.0,GRAYS MEADOWS,-118.295,36.768889,28.06451612903226,,,,2016
232053,0.0,2.0,0.0,0.0,0.0,53.0,0.0,0.0,84.0,16.0,101.0,3.0,GREEN CREEK GROUP,-119.27611100000001,38.110833,,26.5,,,2016
232054,26.0,0.0,0.0,0.0,1043.0,0.0,0.0,0.0,55.0,5.0,39.0,2.0,GREEN VALLEY,-117.061944,34.244721999999996,40.11538461538461,,,,2016
232057,0.0,1.0,0.0,0.0,0.0,9.0,0.0,0.0,790.0,30.0,109.0,3.0,HEART BAR EQUESTRIAN,-116.78583300000001,34.158611,,9.0,,,2016
232058,28.0,0.0,0.0,0.0,385.0,0.0,0.0,0.0,45.0,3.0,88.0,3.0,HONEYMOON FLAT,-119.32,38.201389,13.75,,,,2016
232059,37.0,3.0,0.0,1.0,747.0,51.0,0.0,0.0,45.0,4.0,78.0,2.0,Horseshoe Cove Campground,-121.67638899999999,48.671944,20.18918918918919,17.0,,0.0,2016
232061,82.0,0.0,0.0,0.0,1681.0,0.0,0.0,0.0,59.0,5.0,121.0,3.0,ICE HOUSE,-120.35888899999999,38.823333,20.5,,,,2016
232064,144.0,1.0,0.0,3.0,1529.0,8.0,0.0,0.0,51.0,4.0,112.0,2.0,KACHESS,-121.243425,47.354836,10.618055555555555,8.0,,0.0,2016
232068,0.0,1.0,0.0,0.0,0.0,35.0,0.0,0.0,609.0,75.0,157.0,2.0,LOBO GROUP,-116.8625,34.175556,,35.0,,,2016
232069,24.0,1.0,3.0,0.0,1279.0,53.0,217.0,0.0,29.0,3.0,45.0,1.0,LONE PINE,-118.18480600000001,36.597611,53.291666666666664,53.0,72.33333333333333,,2016
232070,59.0,3.0,0.0,3.0,975.0,35.0,0.0,24.0,59.0,4.0,97.5,3.0,LOON LAKE,-120.33,38.983333,16.52542372881356,11.666666666666666,,8.0,2016
232072,0.0,1.0,0.0,0.0,0.0,18.0,0.0,0.0,209.0,32.5,161.5,2.0,Miller River Group Camp,-121.3925,47.691111,,18.0,,,2016
232074,23.0,0.0,0.0,0.0,415.0,0.0,0.0,0.0,45.0,4.0,52.0,2.0,Money Creek Campground,-121.395556,47.721111,18.043478260869566,,,,2016
232077,10.0,0.0,7.0,14.0,741.0,0.0,469.0,0.0,28.0,3.0,64.0,1.0,ONION VALLEY,-118.345556,36.774722,74.1,,67.0,0.0,2016
232079,20.0,0.0,0.0,1.0,475.0,0.0,0.0,15.0,55.0,4.0,133.0,4.0,PAHA,-119.325,38.179167,23.75,,,15.0,2016
232081,14.0,0.0,0.0,0.0,361.0,0.0,0.0,0.0,41.0,3.0,124.0,2.0,Panorama Point Campground,-121.67222199999999,48.72277800000001,25.785714285714285,,,,2016
232082,9.0,0.0,0.0,0.0,120.0,0.0,0.0,0.0,33.0,4.0,38.5,2.0,Park Creek Campground,-121.67222199999999,48.72277800000001,13.333333333333334,,,,2016
232083,111.0,1.0,0.0,72.0,1531.0,0.0,0.0,0.0,59.0,6.0,112.0,3.0,SUNSET-UNION VALLEY,-120.405,38.865833,13.792792792792794,0.0,,0.0,2016
232090,8.0,0.0,0.0,0.0,211.0,0.0,0.0,0.0,55.0,4.0,133.0,4.0,ROBINSON CREEK NORTH,-119.3175,38.186111,26.375,,,,2016
232094,66.0,0.0,0.0,0.0,1145.0,0.0,0.0,0.0,51.0,4.0,136.0,2.0,SALMON LA SAC,-121.098611,47.398333,17.348484848484848,,,,2016
232096,19.0,0.0,0.0,1.0,402.0,0.0,0.0,0.0,37.0,3.0,73.0,2.0,Shannon Creek Campground,-121.596667,48.740278,21.157894736842106,,,0.0,2016
232099,18.0,0.0,0.0,1.0,562.0,0.0,0.0,0.0,41.0,2.0,66.0,2.0,Silver Fir Campground,-121.70166699999999,48.903056,31.22222222222222,,,0.0,2016
232100,0.0,1.0,0.0,0.0,0.0,23.0,0.0,0.0,209.0,25.0,117.0,2.0,SKYLINE,-116.783056,34.155556,,23.0,,,2016
232107,39.0,0.0,0.0,0.0,564.0,0.0,0.0,0.0,53.0,5.0,32.0,2.0,STUMPY MEADOWS,-120.59166699999999,38.904167,14.461538461538462,,,,2016
232113,46.0,0.0,0.0,1.0,652.0,0.0,0.0,0.0,41.0,4.0,30.0,2.0,Tinkham Campground,-121.581667,47.405833,14.173913043478262,,,0.0,2016
232117,28.0,0.0,0.0,1.0,541.0,0.0,0.0,20.0,55.0,4.0,125.0,3.0,TRUMBULL LAKE,-119.257222,38.050556,19.321428571428573,,,20.0,2016
232118,17.0,0.0,0.0,1.0,323.0,0.0,0.0,0.0,41.0,4.0,64.0,2.0,Turlo Campground,-121.790278,48.095556,19.0,,,0.0,2016
232119,10.0,0.0,3.0,1.0,265.0,0.0,100.0,27.0,61.0,4.0,152.5,4.0,LOWER TWIN LAKES AT BRIDGEPORT,-119.331111,38.172778,26.5,,33.333333333333336,27.0,2016
232120,24.0,0.0,0.0,2.0,568.0,0.0,0.0,0.0,45.0,4.0,41.0,2.0,Verlot Campground,-121.784722,48.091667,23.666666666666668,,,0.0,2016
232121,0.0,2.0,0.0,0.0,0.0,16.0,0.0,0.0,450.0,40.5,157.5,3.0,WENCH CREEK,-120.377222,38.890278,,8.0,,,2016
232123,25.0,3.0,1.0,19.0,2115.0,257.0,89.0,0.0,31.0,4.0,114.0,2.0,WHITNEY PORTAL,-118.229778,36.589861,84.6,85.66666666666667,89.0,0.0,2016
232125,19.0,0.0,0.0,0.0,411.0,0.0,0.0,0.0,59.0,6.0,86.0,3.0,YELLOWJACKET,-120.391667,38.891667,21.63157894736842,,,,2016
232136,122.0,1.0,0.0,0.0,3820.0,19.0,0.0,0.0,60.0,4.0,45.0,2.0,DINKEY CREEK,-119.15388899999999,37.073056,31.311475409836067,19.0,,,2016
232137,17.0,0.0,0.0,27.0,318.0,0.0,0.0,0.0,55.0,5.0,25.5,2.0,FRENCHMAN,-120.18666699999999,39.899722,18.705882352941178,,,0.0,2016
232138,67.0,0.0,0.0,22.0,1240.0,0.0,0.0,0.0,55.0,4.0,34.0,2.0,WHEELER GORGE,-119.27361100000002,34.511944,18.507462686567163,,,0.0,2016
232181,18.0,0.0,0.0,3.0,230.0,0.0,0.0,50.0,48.6,4.0,26.0,2.0,CARTER LAKE,-124.146111,43.856667,12.777777777777779,,,16.666666666666668,2016
232182,58.0,0.0,0.0,10.0,1330.0,0.0,0.0,201.0,69.0,4.0,110.0,3.0,DRIFTWOOD,-124.143056,43.883889,22.93103448275862,,,20.1,2016
232183,65.0,0.0,0.0,5.0,1235.0,0.0,0.0,53.0,70.0,4.0,138.0,4.0,HORSFALL ,-124.244444,43.445833,19.0,,,10.6,2016
232184,12.0,0.0,0.0,1.0,133.0,0.0,0.0,0.0,49.0,4.0,32.0,3.0,WILD MARE HORSE CAMP,-124.267222,43.454444,11.083333333333334,,,0.0,2016
232185,21.0,0.0,0.0,0.0,436.0,0.0,0.0,0.0,53.0,3.0,63.0,2.0,HOPE VALLEY,-119.930125,38.897278,20.761904761904763,,,,2016
232186,25.0,0.0,0.0,0.0,420.0,0.0,0.0,0.0,53.0,3.0,56.0,2.0,MOUNT ROSE (NV) ,-119.897361,39.312278000000006,16.8,,,,2016
232187,22.0,0.0,0.0,0.0,238.0,0.0,0.0,0.0,45.0,4.0,39.0,2.0,Silver Creek,-119.787167,38.588972,10.818181818181818,,,,2016
232234,84.0,0.0,0.0,23.0,313.0,33.0,0.0,0.0,69.0,4.0,53.0,4.0,HAYWARD FLAT,-122.769167,40.874444,3.7261904761904763,inf,,0.0,2016
232235,60.0,0.0,0.0,25.0,328.0,25.0,0.0,0.0,69.0,6.0,43.0,4.0,TANNERY,-122.848056,40.836667,5.466666666666667,inf,,0.0,2016
232236,0.0,2.0,0.0,0.0,0.0,47.0,0.0,0.0,155.0,20.0,91.0,2.0,BIG PINE CANYON,-118.42222199999999,37.12833300000001,,23.5,,,2016
232237,0.0,1.0,0.0,0.0,0.0,22.0,0.0,0.0,187.0,17.5,147.0,3.0,BISHOP PARK GROUP,-118.593333,37.243889,,22.0,,,2016
232238,28.0,0.0,0.0,0.0,357.0,0.0,0.0,0.0,51.0,3.0,38.0,3.0,MCGEE CREEK,-118.784722,37.564444,12.75,,,,2016
232239,0.0,1.0,0.0,0.0,0.0,6.0,0.0,0.0,155.0,25.0,58.0,2.0,ROCK CREEK LAKE GROUP CAMP,-118.73901399999998,37.453821999999995,,6.0,,,2016
232240,0.0,1.0,0.0,0.0,0.0,17.0,0.0,0.0,92.0,12.0,155.0,3.0,TABLE MOUNTAIN (INYO),-118.56833300000001,37.208056,,17.0,,,2016
232241,34.0,0.0,0.0,0.0,467.0,0.0,0.0,0.0,72.0,4.0,85.0,3.0,TUFF CAMPGROUND,-118.66416699999999,37.5625,13.735294117647058,,,,2016
232242,18.0,0.0,0.0,3.0,489.0,0.0,0.0,0.0,53.0,4.0,86.0,3.0,UPPER SAGE FLAT,-118.433889,37.125833,27.166666666666668,,,0.0,2016
232245,15.0,0.0,4.0,0.0,210.0,0.0,0.0,0.0,29.0,3.0,12.0,2.0,GRASSY FLAT CAMPGROUND,-123.88888899999999,41.856389,14.0,,0.0,,2016
232246,19.0,2.0,0.0,34.0,425.0,43.0,0.0,0.0,45.0,4.0,41.5,3.0,ALMANOR,-121.167778,40.216944,22.36842105263158,21.5,,0.0,2016
232247,44.0,2.0,0.0,5.0,244.0,33.0,0.0,36.0,69.0,4.0,33.0,3.0,EAGLE CAMPGROUND,-120.783056,40.54785,5.545454545454546,16.5,,7.2,2016
232248,9.0,3.0,0.0,0.0,0.0,48.0,0.0,0.0,169.0,27.5,89.0,3.0,HAT CREEK,-121.44555600000001,40.66777800000001,0.0,16.0,,,2016
232249,67.0,0.0,0.0,0.0,2074.0,0.0,0.0,0.0,63.0,4.0,30.0,2.0,HANNA FLAT,-116.97444399999999,34.287778,30.955223880597014,,,,2016
232250,82.0,0.0,0.0,29.0,5380.0,0.0,0.0,1740.0,62.0,4.0,47.0,2.0,SERRANO,-116.919444,34.261389,65.60975609756098,,,60.0,2016
232254,195.0,0.0,0.0,0.0,8365.0,0.0,0.0,0.0,50.0,6.0,95.0,3.0,PINECREST,-119.997222,38.19083300000001,42.8974358974359,,,,2016
232260,72.0,0.0,0.0,0.0,0.0,27.0,0.0,0.0,109.0,25.0,109.0,2.0,BIG MEADOW STANISLAUS NATL FS,-120.105,38.416389,0.0,inf,,,2016
232261,26.0,0.0,0.0,0.0,380.0,0.0,0.0,0.0,57.0,4.0,25.0,2.0,HAMPSHIRE ROCKS,-120.49666699999999,39.310556,14.615384615384615,,,,2016
232262,31.0,0.0,1.0,21.0,865.0,0.0,0.0,0.0,53.0,5.0,54.0,2.0,PIPI CAMPGROUND,-120.4375,38.573611,27.903225806451612,,0.0,0.0,2016
232263,37.0,0.0,4.0,18.0,790.0,0.0,51.0,0.0,57.0,4.0,90.0,3.0,SILVER LAKE EAST- ELDORADO,-119.8875,38.675,21.35135135135135,,12.75,0.0,2016
232264,0.0,2.0,0.0,0.0,0.0,36.0,0.0,0.0,207.0,23.5,114.0,2.0,TUNNEL MILLS II,-120.65166699999999,39.252778,,18.0,,,2016
232265,12.0,0.0,0.0,8.0,152.0,0.0,0.0,105.0,59.0,4.0,29.0,2.0,HALLSTED,-121.07305600000001,40.0175,12.666666666666666,,,13.125,2016
232266,0.0,3.0,0.0,0.0,0.0,47.0,0.0,0.0,159.0,24.0,99.0,2.0,HUTCHINS,-121.19916699999999,39.883055999999996,,15.666666666666666,,,2016
232267,59.0,0.0,0.0,0.0,586.0,0.0,0.0,0.0,59.0,5.0,43.0,3.0,RED FEATHER CALIFORNIA,-120.953056,39.735278,9.932203389830509,,,,2016
232268,26.0,0.0,0.0,2.0,1098.0,0.0,0.0,0.0,30.43,4.0,82.0,2.0,JUNE LAKE,-119.073889,37.781944,42.23076923076923,,,0.0,2016
232269,139.0,0.0,0.0,0.0,5985.0,0.0,0.0,0.0,32.32,3.0,24.0,2.0,OH RIDGE,-119.06166699999999,37.796944,43.05755395683453,,,,2016
232270,9.0,9.0,0.0,0.0,0.0,190.0,0.0,0.0,108.56,15.0,111.0,2.0,PINE GLEN,-118.955278,37.649167,0.0,21.11111111111111,,,2016
232271,70.0,0.0,15.0,0.0,1393.0,0.0,307.0,0.0,47.94,4.0,46.0,3.0,SHERWIN CREEK,-118.935,37.63,19.9,,20.466666666666665,,2016
232278,56.0,0.0,0.0,68.0,1231.0,0.0,0.0,0.0,55.0,4.0,35.0,2.0,BURNT RANCHERIA,-116.41611100000001,32.861389,21.982142857142858,,,0.0,2016
232279,85.0,0.0,0.0,26.0,1153.0,0.0,0.0,0.0,55.0,5.0,62.0,2.0,LAGUNA,-116.446389,32.887221999999994,13.564705882352941,,,0.0,2016
232286,47.0,0.0,0.0,0.0,2216.0,0.0,0.0,0.0,63.0,4.0,34.0,2.0,PINEKNOT,-116.88305600000001,34.235278,47.148936170212764,,,,2016
232287,43.0,0.0,0.0,1.0,769.0,0.0,0.0,0.0,52.56,4.0,68.0,2.0,BIG LAKE,-121.870833,44.3775,17.88372093023256,,,0.0,2016
232288,31.0,0.0,0.0,4.0,473.0,0.0,0.0,0.0,48.6,4.0,101.0,2.0,COLD WATER COVE,-121.98888899999999,44.363889,15.258064516129032,,,0.0,2016
232290,0.0,2.0,0.0,52.0,0.0,19.0,0.0,0.0,177.0,35.0,86.0,3.0,GURNSEY CREEK,-121.426667,40.308889,,9.5,,0.0,2016
232293,0.0,3.0,0.0,0.0,0.0,57.0,0.0,0.0,189.0,35.0,121.0,2.0,PIONEER TRAIL,-119.9875,38.1875,,19.0,,,2016
232295,63.0,0.0,0.0,3.0,1401.0,0.0,0.0,71.0,55.0,4.0,19.0,2.0,HEART BAR CAMPGROUND,-116.78583300000001,34.158611,22.238095238095237,,,23.666666666666668,2016
232296,22.0,0.0,0.0,0.0,772.0,0.0,0.0,0.0,55.0,5.0,30.0,2.0,NORTH SHORE (CA),-117.16333300000001,34.267222,35.09090909090909,,,,2016
232298,49.0,0.0,0.0,1.0,921.0,0.0,0.0,0.0,49.0,4.0,58.0,2.0,Silver Springs Campground,-121.53333300000001,46.995556,18.79591836734694,,,0.0,2016
232302,0.0,1.0,0.0,0.0,0.0,6.0,0.0,0.0,96.5,15.0,70.5,2.5,RED FIR,-120.3125,39.002221999999996,,6.0,,,2016
232304,0.0,3.0,0.0,0.0,0.0,46.0,0.0,0.0,221.5,25.5,114.5,3.0,NEWBERRY GROUP CAMP SITE,-121.25694399999999,43.706111,,15.333333333333334,,,2016
232305,30.0,0.0,0.0,0.0,1015.0,0.0,0.0,0.0,43.5,4.0,86.0,2.0,BIG PINE CREEK CAMPGROUND,-118.4325,37.125833,33.833333333333336,,,,2016
232315,25.0,0.0,0.0,0.0,183.0,0.0,0.0,0.0,0.0,4.0,115.0,2.0,Troublesome Creek Campground,-121.4025,47.897778,7.32,,,,2016
232316,12.0,0.0,0.0,0.0,260.0,0.0,0.0,0.0,25.0,3.0,14.0,2.0,PATRICK CREEK CAMPGROUND,-123.846667,41.871944,21.666666666666668,,,,2016
232321,43.0,0.0,0.0,1.0,339.0,0.0,0.0,0.0,57.0,4.0,14.0,2.0,WHITE CLOUD,-120.84527800000001,39.320555999999996,7.883720930232558,,,0.0,2016
232322,38.0,0.0,0.0,1.0,1040.0,0.0,0.0,0.0,34.0,3.0,29.0,2.0,PANTHER FLAT CAMPGROUND,-123.93055600000001,41.843056,27.36842105263158,,,0.0,2016
232342,0.0,1.0,0.0,0.0,0.0,26.0,0.0,0.0,209.0,50.0,114.0,2.0,HOLIDAY GROUP CAMPGROUND,-119.276944,34.517222,,26.0,,,2016
232343,17.0,2.0,0.0,1.0,0.0,49.0,0.0,0.0,169.0,45.0,126.0,2.0,LAKE ALPINE - LODGEPOLE GROUP,-120.105,38.416389,0.0,24.5,,0.0,2016
232348,0.0,0.0,0.0,1.0,0.0,0.0,0.0,56.0,209.0,13.0,162.5,2.0,LOON LAKE CHALET,-120.32,38.98,,,,56.0,2016
232349,0.0,0.0,0.0,1.0,0.0,0.0,0.0,44.0,139.0,5.0,108.5,2.0,ROBBS HUT,-120.40416699999999,38.923611,,,,44.0,2016
232351,0.0,1.0,0.0,0.0,0.0,17.0,0.0,0.0,209.0,20.0,36.0,2.0,GREEN SPOT EQUESTRIAN GROUP CAMP,-116.80611100000002,34.223333000000004,,17.0,,,2016
232356,57.0,0.0,0.0,1.0,896.0,0.0,0.0,0.0,49.0,4.0,59.0,2.0,Bumping Lake Campground,-121.30444399999999,46.85527800000001,15.719298245614034,,,0.0,2016
232361,0.0,2.0,0.0,0.0,0.0,18.0,0.0,0.0,369.0,50.0,122.5,3.0,FAWN ,-122.843333,40.844444,,9.0,,,2016
232362,0.0,1.0,0.0,0.0,0.0,18.0,0.0,0.0,209.5,35.0,97.0,2.0,STONEY GROUP SHASTA-TRINITY,-122.850278,40.85138900000001,,18.0,,,2016
232363,2.0,0.0,0.0,10.0,24.0,15.0,0.0,96.0,54.0,4.0,42.0,3.0,BUSHYTAIL,-122.81888899999998,40.855,12.0,inf,,9.6,2016
232366,41.0,3.0,0.0,0.0,540.0,22.0,0.0,0.0,71.5,6.0,85.0,3.0,WOLF CREEK CALIFORNIA,-120.4,38.883055999999996,13.170731707317072,7.333333333333333,,,2016
232367,21.0,1.0,0.0,6.0,424.0,7.0,0.0,0.0,55.0,4.0,91.0,3.0,CRAGS CAMPGROUND,-119.30416699999999,38.173611,20.19047619047619,7.0,,0.0,2016
232371,20.0,0.0,0.0,0.0,145.0,0.0,0.0,0.0,57.0,2.0,13.0,2.0,YUBA PASS CAMPGROUND,-120.499444,39.6175,7.25,,,,2016
232372,0.0,1.0,0.0,0.0,0.0,24.0,0.0,0.0,159.0,20.0,143.0,2.0,Beaver Creek Group Camp ,-121.53388899999999,48.082221999999994,,24.0,,,2016
232373,0.0,1.0,0.0,0.0,0.0,27.0,0.0,0.0,159.0,15.0,141.0,2.0,Esswine Group Camp,-121.69666699999999,48.073889,,27.0,,,2016
232374,0.0,1.0,0.0,0.0,0.0,20.0,0.0,0.0,159.0,11.0,109.0,2.0,Coal Creek Group Camp,-121.556389,48.083611,,20.0,,,2016
232375,0.0,2.0,0.0,0.0,0.0,34.0,0.0,0.0,199.0,17.0,138.0,2.0,Wiley Creek Group Camp,-121.718333,48.074444,,17.0,,,2016
232377,0.0,1.0,0.0,0.0,0.0,21.0,0.0,0.0,179.0,25.0,170.0,2.0,Tulalip Group Camp,-121.59,48.073333,,21.0,,,2016
232386,27.0,0.0,0.0,0.0,477.0,0.0,0.0,0.0,51.0,4.0,16.0,2.0,CRAB FLATS,-117.08333300000001,34.261666999999996,17.666666666666668,,,,2016
232395,50.0,0.0,0.0,35.0,902.0,0.0,0.0,31.0,75.0,4.0,43.0,3.0,FRENCH CAMP,-118.67916699999999,37.5525,18.04,,,0.8857142857142857,2016
232396,71.0,0.0,0.0,63.0,1563.0,0.0,0.0,0.0,55.0,4.0,73.0,3.0,EAST FORK CALIFORNIA,-118.7175,37.483610999999996,22.014084507042252,,,0.0,2016
232403,15.0,0.0,0.0,1.0,432.0,0.0,0.0,0.0,42.02,4.0,39.5,2.0,OLALLIE ON MCKENZIE HIGHWAY,-122.03888899999998,44.256944,28.8,,,0.0,2016
232407,0.0,1.0,0.0,0.0,0.0,23.0,0.0,0.0,179.0,25.0,165.0,2.0,MINERAL SPRINGS GROUP,-120.697778,47.29277800000001,,23.0,,,2016
232422,0.0,1.0,0.0,0.0,0.0,33.0,0.0,0.0,92.71,10.0,88.0,2.0,TRAILHEAD GROUP,-119.2724,37.9642,,33.0,,,2016
232446,61.0,0.0,5.0,33.0,8374.0,72.0,0.0,474.0,26.0,4.0,90.0,2.0,WAWONA,-119.665,37.573056,137.27868852459017,inf,0.0,14.363636363636363,2016
232447,209.0,0.0,0.0,30.0,16233.0,0.0,0.0,2867.0,26.0,4.0,128.0,2.0,UPPER PINES,-119.5625,37.736111,77.66985645933015,,,95.56666666666666,2016
232448,142.0,0.0,0.0,11.0,7225.0,320.0,0.0,0.0,26.0,4.0,47.0,2.0,TUOLUMNE MEADOWS,-119.36,37.871111,50.88028169014085,inf,,0.0,2016
232449,48.0,0.0,0.0,45.0,5437.0,0.0,0.0,1150.0,26.0,4.0,79.0,2.0,NORTH PINES,-119.565556,37.741944000000004,113.27083333333333,,,25.555555555555557,2016
232450,54.0,0.0,0.0,21.0,4634.0,0.0,0.0,757.0,26.0,4.0,127.0,2.0,LOWER PINES,-119.566667,37.740833,85.81481481481481,,,36.04761904761905,2016
232451,41.0,4.0,57.0,6.0,9059.0,305.0,0.0,0.0,26.0,3.0,73.0,2.0,HODGDON MEADOW,-119.86583300000001,37.798889,220.9512195121951,76.25,0.0,0.0,2016
232452,161.0,0.0,0.0,1.0,10596.0,0.0,0.0,67.0,26.0,3.0,31.0,2.0,CRANE FLAT,-119.844444,37.763889,65.8136645962733,,,67.0,2016
232453,25.0,0.0,0.0,3.0,54.0,73.0,0.0,0.0,60.0,13.0,124.0,3.0,BRIDALVEIL CREEK GROUP AND HORSE CAMP,-119.619722,37.662222,2.16,inf,,0.0,2016
232460,150.0,4.0,24.0,25.0,5008.0,113.0,915.0,855.0,44.0,4.0,75.0,2.0,Dorst Creek Campground-Sequoia and Kings Canyon National Park,-118.809722,36.636111,33.38666666666666,28.25,38.125,34.2,2016
232461,134.0,0.0,47.0,10.0,7835.0,0.0,2528.0,656.0,33.0,4.0,121.0,2.0,Lodgepole Campground-Sequoia and Kings Canyon National Park,-118.7258,36.606711,58.47014925373134,,53.787234042553195,65.6,2016
232464,146.0,1.0,0.0,0.0,6848.0,0.0,0.0,585.0,32.0,3.0,105.0,2.0,KALALOCH,-124.37472199999999,47.613056,46.9041095890411,0.0,,inf,2016
232465,115.0,0.0,0.0,50.0,4796.0,0.0,0.0,60.0,40.0,4.0,120.0,2.0,OHANAPECOSH CAMPGROUND,-121.570278,46.731111,41.70434782608696,,,1.2,2016
232466,80.0,0.0,0.0,43.0,3706.0,0.0,0.0,829.0,30.0,3.0,77.0,2.0,COUGAR ROCK CAMPGROUND,-121.794444,46.767222,46.325,,,19.27906976744186,2016
232470,0.0,6.0,0.0,0.0,0.0,224.0,0.0,0.0,50.0,15.0,45.0,1.0,SHEEP PASS GROUP,-116.11805600000001,33.999167,,37.333333333333336,,,2016
232471,0.0,3.0,0.0,0.0,0.0,118.0,0.0,0.0,40.0,10.0,54.0,1.0,COTTONWOOD GROUP,-115.825,33.75,,39.333333333333336,,,2016
232472,96.0,0.0,0.0,18.0,916.0,345.0,0.0,0.0,40.0,4.0,63.0,2.0,INDIAN COVE CAMPGROUND,-116.155833,34.12,9.541666666666666,inf,,0.0,2016
232473,94.0,0.0,0.0,0.0,919.0,0.0,0.0,0.0,20.0,3.0,51.0,1.0,BLACK ROCK CAMPGROUND,-116.38916699999999,34.071667,9.77659574468085,,,,2016
232491,5.0,0.0,0.0,0.0,521.0,0.0,0.0,0.0,25.0,6.0,91.0,1.0,KIRBY COVE CAMPGROUND,-122.48888899999999,37.84035,104.2,,,,2016
232496,107.0,5.0,0.0,18.0,0.0,0.0,0.0,150.0,0.0,3.0,139.5,1.0,FURNACE CREEK,-116.867778,36.463056,0.0,0.0,,8.333333333333334,2016
232497,15.0,0.0,0.0,1.0,646.0,0.0,0.0,0.0,30.0,4.0,50.5,2.0,SANTA ROSA ISLAND,-120.048147,33.99105,43.06666666666667,,,0.0,2016
232498,30.0,1.0,0.0,0.0,2155.0,341.0,0.0,0.0,15.0,4.0,53.0,2.0,SANTA CRUZ SCORPION,-119.56159699999999,34.048244,71.83333333333333,341.0,,,2016
232499,4.0,0.0,0.0,1.0,369.0,0.0,0.0,0.0,15.0,2.0,31.0,1.0,SANTA CRUZ DEL NORTE BACKCOUNTRY,-119.660278,34.010833,92.25,,,0.0,2016
232500,10.0,0.0,0.0,1.0,19.0,0.0,0.0,0.0,0.0,4.0,81.0,2.0,SANTA BARBARA ISLAND,-119.02989199999999,33.47985,1.9,,,0.0,2016
232501,9.0,0.0,0.0,1.0,44.0,0.0,0.0,0.0,15.0,2.5,17.0,2.0,SAN MIGUEL ISLAND,-120.34908899999999,34.040603000000004,4.888888888888889,,,0.0,2016
232502,7.0,0.0,0.0,2.0,318.0,0.0,0.0,0.0,15.0,3.0,37.0,1.0,ANACAPA ISLAND,-119.36778899999999,34.014192,45.42857142857143,,,0.0,2016
232510,0.0,5.0,0.0,0.0,0.0,140.0,0.0,0.0,120.0,18.0,60.5,2.0,COUGAR ROCK GROUP CAMPGROUND,-121.794444,46.767222,,28.0,,,2016
232753,58.0,0.0,0.0,0.0,451.0,0.0,0.0,0.0,54.0,5.0,23.0,3.0,ANTLERS,-122.3775,40.8875,7.775862068965517,,,,2016
232754,0.0,1.0,0.0,0.0,0.0,22.0,0.0,0.0,399.0,25.0,106.0,3.0,DEKKAS ROCK,-122.2375,40.874722,,22.0,,,2016
232755,23.0,0.0,0.0,0.0,585.0,0.0,0.0,0.0,49.0,3.0,29.0,2.0,GOOSE MEADOWS,-120.209167,39.2575,25.434782608695652,,,,2016
232756,10.0,0.0,0.0,0.0,172.0,0.0,0.0,0.0,57.0,5.0,54.0,3.0,FIR TOP CAMPGROUND,-120.550278,39.485556,17.2,,,,2016
232757,11.0,0.0,0.0,0.0,152.0,0.0,0.0,0.0,57.0,4.0,32.0,2.5,FINDLEY CAMPGROUND,-120.55305600000001,39.484722,13.818181818181818,,,,2016
232758,23.0,0.0,0.0,8.0,304.0,0.0,0.0,62.0,49.0,4.0,35.5,3.0,LAKESHORE EAST,-122.388056,40.871944,13.217391304347826,,,7.75,2016
232759,16.0,0.0,0.0,0.0,299.0,0.0,0.0,0.0,57.0,4.0,40.0,2.0,WOODCAMP CAMPGROUND,-120.54777800000001,39.485556,18.6875,,,,2016
232760,7.0,0.0,0.0,0.0,254.0,0.0,0.0,0.0,44.0,4.0,39.0,2.0,BAILEY COVE,-122.281944,40.801667,36.285714285714285,,,,2016
232761,19.0,0.0,0.0,0.0,323.0,0.0,0.0,0.0,49.0,4.0,63.0,3.0,ELLERY CREEK,-122.24083300000001,40.915833,17.0,,,,2016
232762,46.0,0.0,0.0,0.0,371.0,0.0,0.0,0.0,69.0,5.0,36.0,3.0,HIRZ BAY,-122.253056,40.866667,8.065217391304348,,,,2016
232763,0.0,1.0,0.0,13.0,0.0,16.0,0.0,0.0,269.0,40.0,56.5,2.0,MOORE CREEK,-122.21777800000001,40.883889,,16.0,,0.0,2016
232764,0.0,1.0,0.0,9.0,0.0,10.0,0.0,0.0,314.0,40.5,109.0,3.0,NELSON POINT,-122.34583300000001,40.848333000000004,,10.0,,0.0,2016
232765,0.0,1.0,0.0,15.0,0.0,11.0,0.0,0.0,399.0,30.0,57.0,3.0,PINE POINT (CA),-122.248056,40.927222,,11.0,,0.0,2016
232766,25.0,0.0,0.0,0.0,461.0,0.0,0.0,0.0,57.0,4.0,54.0,3.0,PASS CREEK CAMPGROUND,-120.534378,39.504067,18.44,,,,2016
232767,44.0,0.0,0.0,0.0,821.0,0.0,0.0,0.0,57.0,4.0,117.0,3.0,EAST MEADOW CAMPGROUND,-120.5325,39.500833,18.65909090909091,,,,2016
232768,51.0,0.0,0.0,0.0,3219.0,0.0,0.0,0.0,33.0,3.0,24.0,2.0,Nevada Beach Campground and Day Use Pavilion,-119.94861100000001,38.981944,63.11764705882353,,,,2016
232769,190.0,0.0,0.0,6.0,10333.0,0.0,0.0,418.0,43.0,4.0,52.0,2.0,FALLEN LEAF CAMPGROUND,-120.05,38.926389,54.38421052631579,,,69.66666666666667,2016
232776,7.0,0.0,0.0,4.0,104.0,0.0,0.0,0.0,32.0,5.0,22.0,2.0,WHITE RIVER,-118.634722,35.845833,14.857142857142858,,,0.0,2016
232777,0.0,1.0,0.0,0.0,0.0,18.0,0.0,0.0,276.5,30.0,101.0,2.0,LOGGER FLAT GROUP,-118.893611,36.775556,,18.0,,,2016
232778,17.0,0.0,0.0,0.0,290.0,0.0,0.0,0.0,45.0,2.0,77.0,3.0,WHITEFISH HORSE CAMP,-122.03138899999999,43.465556,17.058823529411764,,,,2016
232779,0.0,3.0,0.0,0.0,0.0,62.0,0.0,0.0,249.0,20.0,165.5,3.0,Simax Group Camp,-121.96194399999999,43.494444,,20.666666666666668,,,2016
232780,0.0,1.0,0.0,0.0,0.0,8.0,0.0,0.0,369.0,70.0,141.0,2.0,ASPEN HOLLOW GROUP,-118.902778,36.781110999999996,,8.0,,,2016
232781,64.0,0.0,0.0,3.0,2542.0,0.0,0.0,0.0,59.0,5.0,60.0,2.0,HUME LAKE,-118.90472199999999,36.794722,39.71875,,,0.0,2016
232782,81.0,0.0,0.0,7.0,1700.0,0.0,0.0,0.0,34.0,5.0,33.0,2.0,PRINCESS,-118.936944,36.802778,20.987654320987655,,,0.0,2016
232783,0.0,1.0,0.0,0.0,0.0,19.0,0.0,0.0,534.0,50.0,134.0,3.0,COVE GROUP,-118.83805600000001,36.665,,19.0,,,2016
232784,0.0,1.0,0.0,0.0,0.0,14.0,0.0,0.0,709.0,90.0,147.0,2.5,FIR GROUP,-118.84166699999999,36.664167,,14.0,,,2016
232785,42.0,1.0,1.0,4.0,1956.0,0.0,57.0,0.0,59.0,4.0,54.0,2.0,STONY CREEK SEQUOIA,-118.831667,36.664722,46.57142857142857,0.0,57.0,0.0,2016
232786,0.0,1.0,0.0,0.0,0.0,15.0,0.0,0.0,709.0,80.0,135.0,2.0,FRENCH GULCH,-118.472222,35.670833,,15.0,,,2016
232787,24.0,0.0,0.0,1.0,421.0,0.0,0.0,0.0,45.0,4.0,90.0,3.0,BLUE BAY,-121.731944,44.42,17.541666666666668,,,0.0,2016
232788,30.0,0.0,0.0,4.0,497.0,0.0,0.0,139.0,47.5,4.0,105.0,3.0,LINK CREEK,-121.755278,44.415833,16.566666666666666,,,34.75,2016
232789,10.0,0.0,0.0,0.0,33.0,157.0,0.0,0.0,77.0,6.5,60.0,2.0,Scout Lake,-121.74727800000001,44.41095,3.3,inf,,,2016
232791,37.0,0.0,0.0,0.0,610.0,0.0,0.0,0.0,45.0,4.0,93.0,3.0,South Shore,-121.73833300000001,44.419444,16.486486486486488,,,,2016
232792,51.0,0.0,0.0,0.0,276.0,0.0,0.0,0.0,37.0,4.0,9.0,2.0,PARADISE COVE,-118.425,35.649167,5.411764705882353,,,,2016
232793,75.0,0.0,0.0,0.0,272.0,0.0,0.0,0.0,59.0,6.0,11.0,2.0,PIONEER POINT,-118.48611100000001,35.651666999999996,3.6266666666666665,,,,2016
232794,76.0,0.0,0.0,1.0,208.0,0.0,0.0,0.0,59.0,6.0,15.0,3.0,HUNGRY GULCH,-118.472222,35.671944,2.736842105263158,,,0.0,2016
232795,60.0,0.0,0.0,3.0,208.0,0.0,0.0,0.0,59.0,5.0,6.0,2.0,BOULDER GULCH,-118.469167,35.6725,3.466666666666667,,,0.0,2016
232796,77.0,4.0,0.0,0.0,350.0,25.0,0.0,0.0,63.0,6.0,16.0,2.0,TILLIE CREEK,-118.454444,35.701389,4.545454545454546,6.25,,,2016
232797,0.0,1.0,0.0,0.0,0.0,17.0,0.0,0.0,159.0,25.0,136.0,2.0,Atkisson Group camp,-121.60888899999999,45.9625,,17.0,,,2016
232799,16.0,0.0,0.0,0.0,42.0,0.0,0.0,0.0,34.0,4.0,10.0,2.0,Moss Creek campground,-121.63916699999999,45.797778,2.625,,,,2016
232800,14.0,0.0,0.0,0.0,96.0,0.0,0.0,0.0,41.0,4.0,62.5,2.0,Oklahoma campground,-121.627222,45.87,6.857142857142857,,,,2016
232801,60.0,0.0,0.0,0.0,676.0,0.0,0.0,0.0,0.0,6.0,174.0,4.0,SPRING COVE,-119.541389,37.300556,11.266666666666667,,,,2016
232802,50.0,0.0,0.0,0.0,1460.0,0.0,0.0,0.0,0.0,6.0,66.0,3.0,LUPINE,-119.54416699999999,37.307778000000006,29.2,,,,2016
232803,40.0,0.0,0.0,0.0,724.0,0.0,0.0,0.0,61.0,5.0,28.0,3.0,JACKASS MEADOW,-118.96361100000001,37.279722,18.1,,,,2016
232804,16.0,0.0,0.0,0.0,276.0,0.0,0.0,0.0,61.0,4.0,28.0,2.0,MONO CREEK,-118.9975,37.358610999999996,17.25,,,,2016
232805,23.0,0.0,0.0,0.0,809.0,0.0,0.0,0.0,61.0,4.0,80.0,3.0,MONO HOT SPRINGS,-119.017778,37.326389,35.17391304347826,,,,2016
232806,30.0,0.0,0.0,0.0,561.0,0.0,0.0,0.0,61.0,4.0,20.0,2.0,VERMILLION,-119.009722,37.379166999999995,18.7,,,,2016
232807,27.0,0.0,0.0,0.0,686.0,0.0,0.0,0.0,55.0,6.0,39.0,2.0,WISHON,-118.6625,36.1875,25.40740740740741,,,,2016
232808,0.0,1.0,0.0,0.0,0.0,8.0,0.0,0.0,459.0,65.0,51.5,2.0,BADGER FLATS GROUP,-119.115,37.269444,,8.0,,,2016
232809,13.0,0.0,0.0,0.0,414.0,0.0,0.0,0.0,55.0,4.0,72.0,2.0,BELKNAP,-118.599722,36.141667,31.846153846153847,,,,2016
232811,24.0,0.0,0.0,0.0,526.0,0.0,0.0,0.0,60.0,4.0,32.0,3.0,CATAVEE,-119.17694399999999,37.2525,21.916666666666668,,,,2016
232812,10.0,0.0,0.0,0.0,339.0,0.0,0.0,0.0,60.0,5.0,33.0,2.0,COLLEGE,-119.168889,37.251944,33.9,,,,2016
232813,27.0,0.0,0.0,0.0,831.0,0.0,0.0,0.0,60.0,5.0,48.0,3.0,DEER CREEK,-119.17694399999999,37.251944,30.77777777777778,,,,2016
232814,25.0,0.0,0.0,0.0,569.0,0.0,0.0,0.0,60.0,5.0,37.0,3.0,KINNIKINNICK,-119.177778,37.252778,22.76,,,,2016
232815,122.0,3.0,0.0,0.0,3319.0,0.0,0.0,0.0,60.0,4.0,38.0,2.0,RANCHERIA,-119.161111,37.247778000000004,27.204918032786885,0.0,,,2016
232816,28.0,0.0,4.0,0.0,512.0,0.0,77.0,0.0,59.0,6.0,66.0,2.0,HOSPITAL FLAT,-118.457778,35.82861099999999,18.285714285714285,,19.25,,2016
232817,45.0,0.0,0.0,0.0,21.0,0.0,0.0,0.0,0.0,6.0,125.0,3.0,MAMMOTH POOL,-119.331111,37.344167,0.4666666666666667,,,,2016
232818,18.0,0.0,0.0,0.0,55.0,0.0,0.0,0.0,0.0,6.0,135.0,3.0,ROCK CREEK (SIERRA NATL FORES),-119.359444,37.291111,3.0555555555555554,,,,2016
232819,14.0,0.0,0.0,23.0,392.0,0.0,0.0,703.0,59.0,6.0,68.0,2.0,HEADQUARTERS,-118.45111100000001,35.795833,28.0,,,30.565217391304348,2016
232820,7.0,0.0,0.0,0.0,13.0,0.0,0.0,0.0,0.0,4.0,137.0,2.0,FISH CREEK (CA),-119.352778,37.260278,1.8571428571428572,,,,2016
232821,61.0,0.0,0.0,0.0,1724.0,0.0,0.0,0.0,69.0,6.0,56.0,2.0,DORABELLE CAMPGROUND,-119.309722,37.113889,28.262295081967213,,,,2016
232822,0.0,1.0,0.0,0.0,0.0,15.0,0.0,0.0,261.0,20.0,75.0,2.0,LONG MEADOW GROUP,-118.580556,35.979167,,15.0,,,2016
232823,9.0,0.0,0.0,0.0,123.0,0.0,0.0,0.0,51.0,5.0,23.0,2.0,HOLEY MEADOW,-118.61805600000001,35.954167,13.666666666666666,,,,2016
232825,6.0,0.0,0.0,8.0,250.0,0.0,0.0,110.0,59.0,4.0,38.0,2.0,REDWOOD MEADOW,-118.59166699999999,35.977778,41.666666666666664,,,13.75,2016
232827,22.0,6.0,0.0,6.0,423.0,129.0,0.0,46.0,55.0,5.0,30.0,2.0,QUAKING ASPEN,-118.54722199999999,36.12083300000001,19.227272727272727,21.5,,7.666666666666667,2016
232829,16.0,0.0,0.0,22.0,231.0,0.0,0.0,0.0,55.0,4.0,25.0,2.0,SPRING CREEK,-120.17638899999999,39.895833,14.4375,,,0.0,2016
232830,69.0,1.0,0.0,1.0,327.0,20.0,0.0,0.0,55.0,4.0,60.0,3.0,GRASSHOPPER FLAT,-120.47694399999999,39.890556,4.739130434782608,20.0,,0.0,2016
232831,47.0,0.0,0.0,16.0,2497.0,0.0,0.0,0.0,46.38,4.0,69.0,2.0,TRILLIUM,-121.734444,45.27,53.12765957446808,,,0.0,2016
232832,11.0,0.0,0.0,30.0,176.0,0.0,0.0,0.0,55.0,4.0,26.0,2.0,LIGHTNING TREE,-120.510494,39.925456,16.0,,,0.0,2016
232833,16.0,0.0,0.0,41.0,288.0,0.0,0.0,0.0,55.0,4.0,39.0,2.0,GRIZZLY,-120.4725,39.887221999999994,18.0,,,0.0,2016
232834,13.0,0.0,0.0,1.0,84.0,0.0,0.0,0.0,44.5,3.0,9.0,2.0,RILEY HORSE CAMPGROUND,-121.859444,45.381389,6.461538461538462,,,0.0,2016
232835,26.0,0.0,0.0,1.0,631.0,0.0,0.0,0.0,48.24,4.0,31.0,2.0,STILL CREEK,-121.735556,45.295833,24.26923076923077,,,0.0,2016
232836,13.0,0.0,0.0,1.0,365.0,0.0,0.0,0.0,38.62,3.0,27.0,2.0,TOLLGATE,-121.90527800000001,45.321944,28.076923076923077,,,0.0,2016
232837,24.0,0.0,0.0,0.0,676.0,0.0,0.0,0.0,46.38,4.0,38.0,2.0,CAMP CREEK,-121.864722,45.303056,28.166666666666668,,,,2016
232838,7.0,0.0,5.0,3.0,219.0,0.0,127.0,111.0,46.38,3.0,54.0,2.0,LOST CREEK,-121.83444399999999,45.381944,31.285714285714285,,25.4,37.0,2016
232839,21.0,0.0,0.0,3.0,341.0,0.0,0.0,65.0,48.24,4.0,23.0,2.0,FISH CREEK (OR),-122.15166699999999,45.158889,16.238095238095237,,,21.666666666666668,2016
232840,15.0,0.0,0.0,1.0,324.0,0.0,0.0,0.0,42.64,4.0,53.5,2.0,RIVERSIDE (OR),-122.060556,45.043333000000004,21.6,,,0.0,2016
232841,21.0,0.0,0.0,1.0,589.0,0.0,0.0,0.0,48.26,4.0,32.0,2.0,LAZY BEND,-122.206667,45.191111,28.047619047619047,,,0.0,2016
232842,29.0,0.0,0.0,1.0,463.0,0.0,0.0,0.0,48.24,4.0,25.0,2.0,LOCKABY,-122.151389,45.165833,15.96551724137931,,,0.0,2016
232843,11.0,0.0,0.0,0.0,288.0,0.0,0.0,0.0,42.64,4.0,39.0,2.0,ARMSTRONG,-122.15166699999999,45.162778,26.181818181818183,,,,2016
232844,13.0,0.0,0.0,1.0,377.0,0.0,0.0,0.0,42.64,4.0,59.0,2.0,RIPPLEBROOK,-122.04055600000001,45.079722,29.0,,,0.0,2016
232845,17.0,0.0,0.0,0.0,308.0,0.0,0.0,0.0,42.64,4.0,36.0,2.0,RAINBOW (OR),-122.043333,45.0775,18.11764705882353,,,,2016
232846,8.0,0.0,0.0,0.0,174.0,0.0,0.0,0.0,46.38,4.0,34.5,2.0,SUNSTRIP,-122.109528,45.152621999999994,21.75,,,,2016
232847,14.0,0.0,0.0,0.0,210.0,0.0,0.0,0.0,43.57,4.0,30.0,2.0,ROARING RIVER,-122.12166699999999,45.167221999999995,15.0,,,,2016
232848,31.0,0.0,0.0,1.0,828.0,0.0,0.0,0.0,48.24,4.0,39.0,2.0,FROG LAKE,-121.692222,45.2225,26.70967741935484,,,0.0,2016
232849,27.0,0.0,0.0,1.0,1046.0,0.0,0.0,0.0,48.24,4.0,43.0,2.0,CLEAR LAKE (OR),-121.696389,45.181111,38.74074074074074,,,0.0,2016
232850,0.0,6.0,0.0,0.0,0.0,97.0,0.0,0.0,111.82,25.0,118.0,2.0,RAAB,-122.06944399999999,45.022222,,16.166666666666668,,,2016
232851,26.0,0.0,0.0,0.0,562.0,0.0,0.0,0.0,46.38,4.0,39.0,2.0,INDIAN HENRY,-122.073889,45.108056,21.615384615384617,,,,2016
232852,17.0,0.0,0.0,1.0,118.0,0.0,0.0,0.0,45.0,4.0,17.5,3.0,North Fork Campground (WA),-121.787778,46.450833,6.9411764705882355,,,0.0,2016
232853,97.0,0.0,0.0,0.0,1039.0,0.0,0.0,0.0,49.0,4.0,37.0,2.0,Iron Creek Campground,-121.986944,46.429722,10.711340206185566,,,,2016
232854,22.0,0.0,0.0,1.0,515.0,0.0,0.0,0.0,49.24,4.0,71.0,2.0,KINGFISHER,-122.089722,44.976944,23.40909090909091,,,0.0,2016
232855,20.0,0.0,0.0,2.0,151.0,0.0,0.0,0.0,45.0,4.0,22.0,2.0,Tower Rock Campground ,-121.86805600000001,46.445,7.55,,,0.0,2016
232856,7.0,0.0,0.0,0.0,176.0,0.0,0.0,0.0,41.0,4.0,46.0,2.0,LAKE HARRIET ,-121.956944,45.073611,25.142857142857142,,,,2016
232857,23.0,0.0,0.0,1.0,228.0,0.0,0.0,0.0,41.0,4.0,22.0,2.0,Adams Fork Campground,-121.64694399999999,46.338889,9.91304347826087,,,0.0,2016
232858,197.0,0.0,0.0,0.0,3136.0,0.0,0.0,0.0,55.0,4.0,24.0,2.0,LOGGER CAMPGROUND,-120.128611,39.466389,15.918781725888325,,,,2016
232859,0.0,4.0,0.0,0.0,0.0,62.0,0.0,0.0,220.0,25.0,141.0,2.0,EMIGRANT GROUP,-120.11638899999998,39.470556,,15.5,,,2016
232860,42.0,0.0,0.0,0.0,287.0,0.0,0.0,0.0,45.0,4.0,47.0,3.0,Walupt Lake Campground,-121.473611,46.423056,6.833333333333333,,,,2016
232861,54.0,0.0,0.0,0.0,894.0,0.0,0.0,0.0,45.0,4.0,111.0,2.0,Takhlakh Lake Campground ,-121.598611,46.280833,16.555555555555557,,,,2016
232862,41.0,0.0,0.0,0.0,473.0,0.0,0.0,0.0,45.0,4.0,39.0,2.0,Paradise Creek campground,-121.93666699999999,45.95,11.536585365853659,,,,2016
232863,13.0,0.0,0.0,1.0,152.0,0.0,0.0,0.0,48.24,2.5,42.0,3.0,JOE GRAHAM HORSE CAMPGROUND,-121.745833,45.100278,11.692307692307692,,,0.0,2016
232864,23.0,1.0,0.0,0.0,384.0,17.0,0.0,0.0,49.0,4.0,63.0,2.0,Beaver Campground,-121.956944,45.856111,16.695652173913043,17.0,,,2016
232865,23.0,2.0,0.0,0.0,609.0,138.0,0.0,0.0,69.0,6.0,117.0,3.0,PINE POINT ,-121.793056,45.109444,26.47826086956522,69.0,,,2016
232866,46.0,0.0,0.0,0.0,1136.0,0.0,0.0,0.0,49.0,4.0,134.5,2.0,GONE CREEK ,-121.775278,45.11277800000001,24.695652173913043,,,,2016
232867,36.0,0.0,6.0,0.0,1547.0,0.0,0.0,0.0,49.0,4.0,109.0,2.0,HOODVIEW ,-121.793056,45.109444,42.97222222222222,,0.0,,2016
232868,41.0,0.0,0.0,6.0,789.0,0.0,0.0,140.0,49.0,4.0,134.0,3.0,OAK FORK ,-121.770556,45.115278,19.24390243902439,,,23.333333333333332,2016
232869,10.0,0.0,3.0,0.0,41.0,0.0,0.0,0.0,41.0,3.0,11.0,2.0,COLD CREEK,-120.314722,39.54277800000001,4.1,,0.0,,2016
232870,44.0,0.0,0.0,1.0,719.0,0.0,0.0,0.0,47.38,4.0,25.0,2.0,CLACKAMAS LAKE,-121.747222,45.095833,16.34090909090909,,,0.0,2016
232871,47.0,0.0,0.0,0.0,209.0,0.0,0.0,0.0,49.0,3.0,11.0,2.0,COTTONWOOD CREEK,-120.31638899999999,39.549444,4.446808510638298,,,,2016
232872,15.0,0.0,0.0,0.0,501.0,0.0,0.0,0.0,46.38,3.0,27.0,2.0,LITTLE CRATER LAKE,-121.745833,45.1475,33.4,,,,2016
232873,32.0,0.0,0.0,1.0,657.0,0.0,0.0,0.0,48.6,4.0,33.0,2.0,ROCK CREEK (OR),-121.38416699999999,45.2175,20.53125,,,0.0,2016
232874,76.0,0.0,0.0,3.0,3696.0,0.0,0.0,138.0,38.0,3.0,19.0,2.0,WILLIAM KENT CAMPGROUND,-120.15611100000001,39.138333,48.63157894736842,,,46.0,2016
232875,0.0,0.0,9.0,0.0,0.0,0.0,553.0,0.0,30.0,3.0,50.0,2.0,KASPIAN CAMPGROUND,-120.15861100000001,39.114444,,,61.44444444444444,,2016
232876,36.0,0.0,0.0,0.0,2332.0,0.0,0.0,0.0,28.0,3.0,36.0,2.0,MEEKS BAY,-120.12361100000001,39.037778,64.77777777777777,,,,2016
232877,10.0,0.0,0.0,0.0,248.0,0.0,0.0,0.0,56.24,4.0,26.5,3.0,SWEETWATER,-119.352222,37.365,24.8,,,,2016
232878,24.0,0.0,0.0,0.0,1341.0,0.0,0.0,0.0,30.0,4.0,45.0,2.0,FORKS CAMPGROUND,-119.57,37.313056,55.875,,,,2016
232879,0.0,4.0,0.0,0.0,0.0,93.0,0.0,0.0,169.0,20.0,54.0,2.0,TEXAS FLATS,-119.581667,37.392778,,23.25,,,2016
232880,9.0,0.0,0.0,0.0,437.0,0.0,0.0,0.0,42.62,4.0,49.0,2.0,KELTY MEADOW,-119.543889,37.440278,48.55555555555556,,,,2016
232881,11.0,0.0,0.0,0.0,395.0,0.0,0.0,0.0,44.43,3.0,35.0,2.0,SOQUEL CAMPGROUND,-119.560556,37.405,35.90909090909091,,,,2016
232882,20.0,0.0,0.0,0.0,342.0,0.0,0.0,0.0,56.24,4.0,28.0,2.0,CHILKOOT,-119.53861100000002,37.36277800000001,17.1,,,,2016
232883,61.0,0.0,7.0,0.0,1067.0,0.0,191.0,0.0,53.0,3.0,23.0,2.0,GRANITE FLAT (CALIFORNIA),-120.20361100000001,39.299167,17.491803278688526,,27.285714285714285,,2016
232884,19.0,0.0,7.0,0.0,522.0,0.0,256.0,0.0,49.0,4.0,34.0,2.0,SILVER CREEK-TRUCKEE,-120.200833,39.223056,27.473684210526315,,36.57142857142857,,2016
232887,26.0,0.0,0.0,10.0,380.0,0.0,0.0,0.0,57.0,6.0,50.0,2.0,SHIRTTAIL CREEK,-120.784722,39.144444,14.615384615384615,,,0.0,2016
232888,26.0,0.0,0.0,0.0,698.0,0.0,0.0,0.0,57.0,6.0,78.0,2.0,GIANT GAP,-120.792222,39.138889,26.846153846153847,,,,2016
232889,48.0,1.0,1.0,3.0,1057.0,28.0,26.0,0.0,59.0,6.0,47.0,2.0,CAMP THREE CAMPGROUND,-118.45277800000001,35.806667,22.020833333333332,28.0,26.0,0.0,2016
232890,14.0,0.0,0.0,41.0,412.0,0.0,0.0,716.0,59.0,6.0,64.0,3.0,FAIRVIEW CAMPGROUND,-118.492222,35.928889,29.428571428571427,,,17.463414634146343,2016
232891,24.0,0.0,9.0,0.0,415.0,0.0,158.0,0.0,59.0,6.0,56.0,2.0,GOLDLEDGE CAMPGROUND,-118.45638899999999,35.877778,17.291666666666668,,17.555555555555557,,2016
232892,39.0,0.0,0.0,0.0,460.0,0.0,0.0,0.0,49.0,4.0,24.0,2.0,Indian Creek (WA),-121.2425,46.645,11.794871794871796,,,,2016
232893,18.0,0.0,0.0,0.0,215.0,0.0,0.0,0.0,55.0,6.0,24.0,2.0,COY FLAT,-118.61805600000001,36.129166999999995,11.944444444444445,,,,2016
232894,37.0,1.0,0.0,0.0,245.0,14.0,0.0,0.0,42.02,4.0,29.0,2.0,PACKARD CREEK ,-122.43166699999999,43.699721999999994,6.621621621621622,14.0,,,2016
232895,29.0,1.0,0.0,0.0,256.0,10.0,0.0,0.0,41.0,4.0,25.0,2.0,Peterson Prairie Campground,-121.66083300000001,45.969444,8.827586206896552,10.0,,,2016
232896,0.0,1.0,0.0,0.0,0.0,17.0,0.0,0.0,159.0,20.0,61.0,2.0,North Fork Bear Group Camp,-121.787778,46.450833,,17.0,,,2016
232897,0.0,1.0,0.0,0.0,0.0,9.0,0.0,0.0,209.0,25.0,236.0,3.0,North Fork Beaver Group Camp,-121.787778,46.450833,,9.0,,,2016
232898,0.0,1.0,0.0,0.0,0.0,20.0,0.0,0.0,159.0,25.0,135.5,2.5,North Fork Elk Group Camp,-121.78888899999998,46.4525,,20.0,,,2016
232900,0.0,2.0,0.0,0.0,0.0,24.0,0.0,0.0,234.0,50.0,82.5,3.0,OGDEN GROUP,-121.42333300000001,43.728333,,12.0,,,2016
232901,51.0,10.0,0.0,54.0,158.0,51.0,0.0,21.0,69.0,4.0,17.0,3.0,CHRISTIE CAMPGROUND,-120.838783,40.566389,3.0980392156862746,5.1,,0.3888888888888889,2016
232902,51.0,2.0,0.0,248.0,389.0,19.0,0.0,1351.0,99.0,3.0,73.0,4.0,MERRILL CAMPGROUND,-120.81200600000001,40.548119,7.627450980392157,9.5,,5.44758064516129,2016
232906,10.0,0.0,0.0,0.0,412.0,0.0,0.0,0.0,64.0,4.0,51.5,3.0,LOWER BILLY CREEK,-119.227778,37.238056,41.2,,,,2016
232907,15.0,0.0,0.0,0.0,81.0,0.0,19.0,0.0,42.18,4.0,13.0,2.0,LOWER LITTLE TRUCKEE,-120.23638899999999,39.485556,5.4,,inf,,2016
232908,20.0,1.0,0.0,0.0,188.0,15.0,0.0,0.0,49.0,4.0,18.0,2.0,UPPER LITTLE TRUCKEE,-120.243889,39.490833,9.4,15.0,,,2016
232909,0.0,7.0,0.0,0.0,0.0,77.0,0.0,0.0,0.0,18.0,127.0,3.0,CRANE VALLEY,-119.585278,37.333056,,11.0,,,2016
232910,0.0,4.0,0.0,0.0,0.0,73.0,0.0,0.0,10.0,30.0,128.0,2.0,RECREATION POINT,-119.57777800000001,37.328610999999995,,18.25,,,2016
232911,44.0,0.0,0.0,0.0,1491.0,0.0,0.0,0.0,60.0,6.0,76.0,2.0,WISHON BASS LAKE,-119.53388899999999,37.297222,33.88636363636363,,,,2016
232912,22.0,0.0,0.0,0.0,467.0,0.0,0.0,0.0,0.0,10.0,72.0,3.0,CEDAR BLUFF,-119.54416699999999,37.307778000000006,21.227272727272727,,,,2016
232913,83.0,0.0,0.0,0.0,567.0,0.0,0.0,0.0,71.5,4.0,53.0,3.0,LONE ROCK (CA),-120.617222,40.195278,6.831325301204819,,,,2016
232914,29.0,4.0,0.0,0.0,318.0,56.0,0.0,0.0,84.0,5.0,118.5,3.0,LONG POINT (CA),-120.578333,40.178333,10.96551724137931,14.0,,,2016
232915,35.0,0.0,0.0,0.0,162.0,0.0,0.0,0.0,55.0,4.0,15.5,2.5,BOULDER CREEK (CA),-120.611944,40.18333300000001,4.628571428571429,,,,2016
232916,0.0,2.0,0.0,0.0,0.0,17.0,0.0,0.0,259.0,45.0,86.0,2.0,WEST EAGLE CAMPGROUND,-120.78138899999999,40.548611,,8.5,,,2016
233096,0.0,1.0,0.0,0.0,0.0,9.0,0.0,0.0,400.0,30.0,57.0,3.0,HIRZ BAY GROUP 1,-122.253056,40.866667,,9.0,,,2016
233097,0.0,1.0,0.0,0.0,0.0,13.0,0.0,0.0,319.0,30.0,89.0,3.0,HIRZ BAY GROUP 2,-122.253056,40.866667,,13.0,,,2016
233101,0.0,1.0,0.0,0.0,0.0,14.0,0.0,0.0,152.0,12.0,141.5,2.0,ASPEN GROUP (INYO),-118.71194399999999,37.523610999999995,,14.0,,,2016
233102,15.0,0.0,7.0,4.0,325.0,0.0,176.0,66.0,65.0,4.0,98.0,4.0,ROBINSON CREEK SOUTH,-119.3175,38.186111,21.666666666666668,,25.142857142857142,16.5,2016
233103,33.0,0.0,0.0,0.0,432.0,0.0,0.0,0.0,45.0,4.0,49.5,2.0,Panther Creek campground,-121.879722,45.819722,13.090909090909092,,,,2016
233104,0.0,0.0,0.0,1.0,0.0,0.0,0.0,37.0,159.0,5.0,181.0,2.0,VAN VLECK BUNKHOUSE,-120.325,38.929167,,,,37.0,2016
233110,29.0,0.0,0.0,0.0,141.0,0.0,0.0,0.0,48.6,2.0,21.0,3.0,TAHKENITCH CAMPGROUND,-124.1475,43.79638900000001,4.862068965517241,,,,2016
233111,14.0,0.0,0.0,0.0,109.0,0.0,0.0,0.0,45.7,4.0,17.0,2.0,TYEE CAMPGROUND,-124.12166699999999,43.881944,7.785714285714286,,,,2016
233112,50.0,0.0,0.0,1.0,543.0,0.0,0.0,0.0,49.0,4.0,22.0,2.0,EEL CREEK CAMPGROUND,-124.184722,43.583056,10.86,,,0.0,2016
233113,0.0,1.0,0.0,0.0,0.0,8.0,0.0,0.0,139.0,9.0,113.0,2.5,WINDY GROUP CAMP,-122.03027800000001,43.460833,,8.0,,,2016
233114,0.0,1.0,0.0,0.0,0.0,21.0,0.0,0.0,129.0,20.0,161.0,2.0,Boardman Group Camp,-121.676667,48.07,,21.0,,,2016
233115,0.0,4.0,0.0,55.0,0.0,53.0,0.0,772.0,49.0,3.0,58.0,3.0,UNION CREEK CAMPGROUND,-118.018611,44.696944,,13.25,,14.036363636363637,2016
233130,10.0,0.0,0.0,0.0,66.0,0.0,0.0,0.0,57.0,2.0,27.0,3.0,LITTLE LASIER MEADOWS CAMPGROUND,-120.515556,39.490556,6.6,,,,2016
233133,0.0,0.0,0.0,1.0,0.0,0.0,0.0,78.0,84.0,2.0,165.5,2.0,TIMBER BUTTE CABIN,-122.5725,43.925833000000004,,,,78.0,2016
233136,16.0,1.0,0.0,2.0,0.0,12.0,0.0,0.0,159.0,20.0,181.0,3.0,Anthony Lake,-118.233553,44.963192,0.0,12.0,,0.0,2016
233142,17.0,0.0,0.0,0.0,120.0,0.0,0.0,0.0,19.0,2.0,17.5,1.0,BOISE CREEK,-123.65833300000001,40.944722,7.0588235294117645,,,,2016
233153,0.0,1.0,0.0,0.0,0.0,13.0,0.0,0.0,260.0,50.0,174.0,2.0,Eagleview Group Campground (Reservation),-123.49305600000001,43.497778000000004,,13.0,,,2016
233154,0.0,1.0,0.0,0.0,0.0,10.0,0.0,0.0,340.0,95.0,164.5,2.0,Lone Pine Group Campground (Reservation),-122.946389,43.383611,,10.0,,,2016
233161,0.0,1.0,0.0,0.0,0.0,22.0,0.0,0.0,159.0,50.0,67.0,3.0,MASTERSON GROUP CAMPGROUND,-122.847222,39.73777800000001,,22.0,,,2016
233162,0.0,1.0,0.0,0.0,0.0,12.0,0.0,0.0,159.0,25.0,31.5,2.0,GRAY PINE GROUP CAMPGROUND,-122.653333,39.357222,,12.0,,,2016
233180,33.0,0.0,0.0,1.0,197.0,0.0,0.0,0.0,49.0,4.0,16.0,3.0,LEWIS at FRENCH MEADOWS,-120.416944,39.130278000000004,5.96969696969697,,,0.0,2016
233182,27.0,0.0,0.0,5.0,440.0,0.0,0.0,0.0,55.0,6.0,30.0,2.0,SANDY FLAT,-118.52555600000001,35.574444,16.296296296296298,,,0.0,2016
233186,7.0,1.0,0.0,8.0,145.0,17.0,0.0,50.0,49.0,4.0,14.0,2.0,HART-TISH PARK at APPLEGATE LAKE,-123.11444399999999,42.054722,20.714285714285715,17.0,,6.25,2016
233192,106.0,0.0,0.0,4.0,1382.0,0.0,0.0,0.0,45.0,3.0,53.0,3.0,Cinder Hill Campground,-121.200278,43.736944,13.037735849056604,,,0.0,2016
233193,78.0,2.0,0.0,0.0,878.0,35.0,0.0,0.0,63.0,4.0,51.0,3.0,Gull Point Campground,-121.76319199999999,43.703342,11.256410256410257,17.5,,,2016
233194,14.0,0.0,0.0,0.0,80.0,0.0,0.0,0.0,37.0,2.0,56.5,3.0,Chief Paulina Horse Camp,-121.255,43.703610999999995,5.714285714285714,,,,2016
233195,28.0,0.0,0.0,0.0,518.0,0.0,0.0,0.0,41.0,2.5,56.0,3.0,Trapper Creek Campground,-122.045,43.5825,18.5,,,,2016
233196,66.0,0.0,0.0,1.0,788.0,0.0,0.0,0.0,45.0,3.0,43.0,3.0,Paulina Lake Campground,-121.27611100000001,43.711944,11.93939393939394,,,0.0,2016
233197,34.0,0.0,0.0,0.0,724.0,0.0,0.0,0.0,45.0,3.0,71.5,3.0,SMILING RIVER CAMPGROUND,-121.640556,44.493333,21.294117647058822,,,,2016
233198,14.0,0.0,0.0,1.0,384.0,0.0,0.0,0.0,45.0,3.0,74.5,2.0,CAMP SHERMAN CAMPGROUND,-121.63916699999999,44.481944,27.428571428571427,,,0.0,2016
233209,0.0,1.0,0.0,0.0,0.0,23.0,0.0,0.0,129.0,25.0,94.0,3.0,FOX CREEK GROUP CAMP,-122.04861100000001,44.783056,,23.0,,,2016
233215,15.0,1.0,0.0,0.0,41.0,28.0,0.0,0.0,70.0,6.0,122.0,3.0,Little Lava Lake,-121.761697,43.910117,2.7333333333333334,28.0,,,2016
233217,10.0,3.0,0.0,0.0,0.0,67.0,0.0,0.0,69.0,15.0,73.0,3.0,BIG RIVER,-121.49861100000001,43.818333,0.0,22.333333333333332,,,2016
233218,14.0,0.0,0.0,0.0,206.0,0.0,0.0,0.0,33.0,4.0,36.0,3.0,FIR COVE CAMPGROUND,-123.403056,40.344167,14.714285714285714,,,,2016
233225,61.0,1.0,0.0,0.0,0.0,13.0,0.0,0.0,259.0,50.0,66.0,4.0,SPRING,-122.016667,43.461667,0.0,13.0,,,2016
233235,16.0,0.0,0.0,0.0,382.0,0.0,0.0,0.0,40.43,4.0,78.0,2.0,REVERSED CREEK CAMPGROUND,-119.084275,37.770331,23.875,,,,2016
233236,0.0,0.0,0.0,1.0,0.0,7.0,0.0,0.0,109.0,16.0,55.0,2.0,MUD LAKE CAMPGROUND,-118.231944,44.964444,,inf,,0.0,2016
233248,0.0,0.0,0.0,1.0,0.0,0.0,0.0,36.0,74.0,2.0,103.5,3.0,SHORT CREEK GUARD STATION,-118.401389,44.271389,,,,36.0,2016
233249,0.0,0.0,0.0,1.0,0.0,0.0,0.0,61.0,129.0,2.0,70.0,2.0,SUNSHINE GUARD STATION,-118.700556,44.661389,,,,61.0,2016
233256,0.0,1.0,0.0,0.0,0.0,44.0,0.0,0.0,69.0,12.0,129.0,2.5,CAMP 4 GROUP CAMPGROUND,-121.98388899999999,41.23388900000001,,44.0,,,2016
233257,0.0,0.0,0.0,20.0,0.0,0.0,0.0,1253.0,138.0,3.0,118.0,2.0,MANZANITA LAKE CAMPING CABINS,-121.561944,40.53,,,,62.65,2016
233258,36.0,0.0,0.0,1.0,317.0,0.0,0.0,22.0,40.68,4.0,25.0,2.0,RIVERSIDE AT DETROIT,-121.945333,44.642419,8.805555555555555,,,22.0,2016
233259,0.0,1.0,0.0,0.0,0.0,16.0,0.0,0.0,276.32,22.5,153.5,2.5,CLEATOR BEND,-121.99941899999999,44.777986,,16.0,,,2016
233283,90.0,3.0,0.0,0.0,1317.0,79.0,0.0,0.0,49.0,6.0,18.0,2.0,PYRAMID LAKE - LOS ALAMOS CAMPGROUND,-118.766667,34.65,14.633333333333333,26.333333333333332,,,2016
233285,0.0,1.0,0.0,0.0,0.0,21.0,0.0,0.0,289.0,50.0,100.0,2.0,PONDEROSA COVE CAMPGROUND,-120.602778,38.874167,,21.0,,,2016
233296,0.0,0.0,0.0,1.0,0.0,0.0,0.0,68.0,129.0,3.0,181.0,2.0,BLACK MOUNTAIN LOOKOUT,-120.32111100000002,40.115278,,,,68.0,2016
233297,38.0,2.0,0.0,1.0,616.0,38.0,0.0,0.0,45.0,4.0,61.0,2.0,Swift Creek Campground,-121.65722199999999,48.728889,16.210526315789473,19.0,,0.0,2016
233300,28.0,0.0,0.0,0.0,910.0,0.0,0.0,0.0,39.0,5.0,56.0,2.0,OBSERVATORY CAMPGROUND,-116.878611,33.341667,32.5,,,,2016
233301,29.0,0.0,0.0,1.0,422.0,0.0,0.0,0.0,48.650000000000006,4.0,53.0,2.0,BREITENBUSH CAMPGROUND,-121.99148899999999,44.7814,14.551724137931034,,,0.0,2016
233303,12.0,0.0,0.0,0.0,326.0,0.0,0.0,0.0,39.0,5.0,34.0,2.0,FRY CREEK CAMPGROUND,-116.88,33.345,27.166666666666668,,,,2016
233305,0.0,0.0,0.0,1.0,0.0,0.0,0.0,23.0,309.0,5.0,115.0,2.0,OLALLIE LAKE GUARD STATION CABIN,-121.790278,44.813889,,,,23.0,2016
233314,10.0,0.0,0.0,0.0,207.0,0.0,0.0,0.0,20.0,5.0,17.0,2.0,TRIMMER CAMPGROUND,-119.29361100000001,36.904444,20.7,,,,2016
233322,0.0,0.0,1.0,0.0,0.0,0.0,29.0,0.0,89.0,3.0,182.0,2.0,ACKER ROCK LOOKOUT,-122.64561100000002,43.052306,,,29.0,,2016
233323,0.0,0.0,0.0,8.0,0.0,0.0,0.0,118.0,66.42,2.0,22.5,2.0,SPRING DRIVE RV CAMPGROUND,-121.5325,45.125278,,,,14.75,2016
233325,0.0,0.0,0.0,3.0,0.0,0.0,0.0,47.0,509.0,10.0,89.0,2.0,GROUSE VALLEY,-118.810278,36.30027800000001,,,,15.666666666666666,2016
233329,0.0,0.0,0.0,1.0,0.0,0.0,0.0,7.0,19.0,6.0,143.0,2.0,TILLY JANE GUARD STATION,-121.64805600000001,45.398889000000004,,,,7.0,2016
233339,15.0,0.0,0.0,0.0,199.0,0.0,0.0,0.0,33.68,4.0,20.0,2.0,SLIDE CREEK,-122.224722,44.074721999999994,13.266666666666667,,,,2016
233340,37.0,0.0,0.0,0.0,323.0,0.0,0.0,0.0,42.02,4.0,22.0,2.0,DELTA,-122.281667,44.163610999999996,8.72972972972973,,,,2016
233341,19.0,0.0,0.0,0.0,240.0,0.0,0.0,0.0,42.02,4.0,39.0,2.0,MONA ,-122.262969,44.2011,12.631578947368421,,,,2016
233344,12.0,0.0,0.0,6.0,494.0,0.0,0.0,0.0,51.0,3.0,51.0,2.0,MARY SMITH CAMPGROUND,-122.915278,40.926111,41.166666666666664,,,0.0,2016
233345,53.0,0.0,0.0,0.0,218.0,0.0,0.0,0.0,49.0,4.0,24.5,2.0,ALPINE VIEW CAMPGROUND,-122.76581399999999,40.887064,4.113207547169812,,,,2016
233346,50.0,0.0,0.0,0.0,167.0,0.0,0.0,0.0,41.0,4.0,23.0,3.0,ACKERMAN CAMPGROUND,-122.771667,40.785556,3.34,,,,2016
233347,13.0,0.0,0.0,1.0,96.0,0.0,0.0,22.0,33.0,4.0,31.5,3.0,MINERSVILLE CAMPGROUND,-122.81138899999999,40.851667,7.384615384615385,,,22.0,2016
233351,0.0,1.0,0.0,0.0,0.0,24.0,0.0,0.0,84.0,22.5,108.0,3.0,CHINQUAPIN GROUP CAMPGROUND,-123.45583300000001,42.140278,,24.0,,,2016
233356,0.0,1.0,0.0,0.0,0.0,25.0,0.0,0.0,45.0,4.0,30.0,2.0,BUTTE LAKE STOCK CORRAL,-121.305278,40.565,,25.0,,,2016
233357,0.0,1.0,0.0,0.0,0.0,12.0,0.0,0.0,19.0,4.0,12.5,2.0,JUNIPER LAKE STOCK CORRAL,-121.295833,40.451111,,12.0,,,2016
233358,0.0,1.0,0.0,0.0,0.0,15.0,0.0,0.0,45.0,4.0,114.0,3.0,SUMMIT LAKE STOCK CORRAL,-121.4175,40.494444,,15.0,,,2016
233359,0.0,6.0,58.0,18.0,0.0,576.0,5899.0,0.0,20.0,3.0,52.0,1.0,Point Reyes National Seashore Campground,-122.975,37.996666999999995,,96.0,101.70689655172414,0.0,2016
233363,17.0,0.0,0.0,7.0,612.0,0.0,0.0,0.0,55.0,4.0,28.0,2.0,ESHOM CAMPGROUND,-118.9504,36.6891,36.0,,,0.0,2016
233364,38.0,0.0,3.0,0.0,757.0,0.0,0.0,0.0,49.36,4.0,98.0,3.0,NORTH WALDO,-122.00388899999999,43.758055999999996,19.92105263157895,,0.0,,2016
233366,0.0,2.0,0.0,0.0,0.0,56.0,0.0,0.0,117.0,24.0,125.5,2.0,MEADOW GROUP CAMPGROUND,-118.017778,34.323889,,28.0,,,2016
233372,0.0,5.0,0.0,0.0,0.0,69.0,0.0,0.0,140.0,24.0,104.0,2.0,MANZANITA LAKE GROUP CAMPGROUND,-121.56388899999999,40.529167,,13.8,,,2016
233384,44.0,3.0,8.0,3.0,752.0,57.0,212.0,162.0,59.0,4.0,55.0,2.0,COHO CAMPGROUND,-123.602222,47.458056,17.09090909090909,19.0,26.5,54.0,2016
233404,48.0,0.0,0.0,0.0,616.0,0.0,0.0,0.0,31.12,4.0,111.0,3.0,LAKE MARY CAMPGROUND,-119.0075,37.606944,12.833333333333334,,,,2016
233406,0.0,1.0,0.0,0.0,0.0,23.0,0.0,0.0,44.0,10.0,39.0,1.0,OCHOCO DIVIDE GROUP SITE,-120.38718600000001,44.500575,,23.0,,,2016
233414,48.0,4.0,0.0,35.0,312.0,50.0,0.0,330.0,40.0,4.0,8.0,2.0,Codorniz Recreation Area Campground,-119.96861100000001,37.215833,6.5,12.5,,9.428571428571429,2016
233431,0.0,0.0,108.0,0.0,0.0,0.0,1797.0,0.0,40.0,5.0,16.0,2.0,BOAT-IN SITES (LAKE SONOMA),-123.0,38.708333,,,16.63888888888889,,2016
233437,134.0,3.0,0.0,1.0,2590.0,54.0,0.0,31.0,50.0,6.0,15.0,2.0,BUSHAY RECREATION AREA,-123.16593300000001,39.235006,19.328358208955223,18.0,,31.0,2016
233439,87.0,1.0,5.0,0.0,1598.0,18.0,50.0,0.0,30.0,5.0,5.0,2.0,BUCKHORN,-122.36683899999998,39.812096999999994,18.367816091954023,18.0,10.0,,2016
233454,0.0,0.0,0.0,52.0,0.0,0.0,0.0,1990.0,29.75,3.0,74.5,2.0,CHARBONNEAU PK,-118.84472199999999,46.255556,,,,38.26923076923077,2016
233499,0.0,0.0,11.0,41.0,0.0,0.0,333.0,1416.0,30.0,4.0,39.0,2.0,FISHHOOK PARK,-118.76611100000001,46.315,,,30.272727272727273,34.53658536585366,2016
233509,29.0,2.0,0.0,23.0,419.0,33.0,0.0,420.0,40.0,4.0,8.0,2.0,HIDDEN VIEW,-119.897222,37.124722,14.448275862068966,16.5,,18.26086956521739,2016
233514,0.0,0.0,0.0,67.0,0.0,0.0,0.0,2618.0,26.0,3.0,18.0,2.0,HOOD PARK,-119.013,46.213719,,,,39.07462686567164,2016
233521,68.0,2.0,0.0,23.0,666.0,41.0,0.0,437.0,40.0,5.0,11.0,2.0,ISLAND PARK,-119.31572800000001,36.864644,9.794117647058824,20.5,,19.0,2016
233532,98.0,0.0,0.0,3.0,3248.0,0.0,0.0,0.0,50.0,5.0,11.0,2.0,KYEN CAMPGROUND AND OAK GROVE DAY USE AREA,-123.177778,39.236667,33.142857142857146,,,0.0,2016
233536,0.0,0.0,20.0,22.0,0.0,0.0,364.0,1424.0,22.0,2.0,10.5,2.0,LEPAGE PARK,-120.65126399999998,45.728396999999994,,,18.2,64.72727272727273,2016
233537,98.0,3.0,0.0,1.0,1797.0,74.0,0.0,32.0,50.0,4.0,5.0,2.0,LIBERTY GLEN (LAKE SONOMA),-123.056389,38.713611,18.336734693877553,24.666666666666668,,32.0,2016
233568,35.0,1.0,0.0,0.0,211.0,11.0,0.0,0.0,36.0,5.5,24.0,2.0,ORLAND BUTTES,-122.352847,39.772197,6.0285714285714285,11.0,,,2016
233585,93.0,0.0,0.0,0.0,2144.0,0.0,0.0,0.0,40.0,4.0,15.0,2.0,PINE MEADOWS CAMPGROUND,-123.0575,43.700278000000004,23.053763440860216,,,,2016
233587,0.0,1.0,0.0,32.0,0.0,0.0,0.0,1543.0,24.0,2.0,8.0,2.0,Plymouth Park,-119.34833300000001,45.931667,,0.0,,48.21875,2016
233623,57.0,6.0,0.0,0.0,1386.0,40.0,0.0,0.0,36.0,3.0,3.0,2.0,SCHWARZ PARK,-122.96666699999999,43.78888900000001,24.31578947368421,6.666666666666667,,,2016
233655,72.0,0.0,0.0,24.0,782.0,0.0,0.0,622.0,40.0,6.0,4.0,2.0,TULE,-118.902222,36.080278,10.86111111111111,,,25.916666666666668,2016
233681,0.0,1.0,0.0,0.0,0.0,21.0,0.0,0.0,809.0,100.0,121.0,2.0,OSO GROUP,-116.8625,34.175556,,21.0,,,2016
233682,0.0,1.0,0.0,0.0,0.0,13.0,0.0,0.0,239.0,30.0,164.0,2.0,CLE ELUM RIVER GROUP SITE,-121.10333100000001,47.349719,,13.0,,,2016
233683,126.0,0.0,0.0,1.0,2813.0,0.0,0.0,0.0,40.0,7.0,16.0,2.0,ACORN CAMPGROUND,-120.799722,38.176261,22.325396825396826,,,0.0,2016
233685,11.0,0.0,0.0,0.0,197.0,0.0,0.0,0.0,67.0,2.0,50.0,3.0,WILD HORSE EQUESTRIAN FAMILY,-116.767222,34.201944,17.90909090909091,,,,2016
233692,83.0,0.0,0.0,0.0,1811.0,0.0,0.0,0.0,20.0,1.0,0.0,1.0,HORSE CREEK,-118.954722,36.390556,21.819277108433734,,,,2016
233693,35.0,1.0,0.0,0.0,420.0,9.0,0.0,0.0,68.4,6.0,90.0,3.0,HOOVER CAMPGROUND,-122.124031,44.713297,12.0,9.0,,,2016
233694,59.0,1.0,0.0,4.0,706.0,12.0,0.0,22.0,52.56,4.0,73.0,3.0,COVE CREEK,-122.15861100000001,44.712016999999996,11.966101694915254,12.0,,5.5,2016
233705,52.0,0.0,0.0,6.0,1378.0,0.0,0.0,0.0,45.0,4.0,98.5,3.0,SUNSET,-122.19694399999999,42.372222,26.5,,,0.0,2016
233707,49.0,1.0,0.0,0.0,1458.0,22.0,0.0,0.0,45.0,4.0,57.0,2.0,ASPEN POINT,-122.2125,42.384722,29.755102040816325,22.0,,,2016
233726,0.0,0.0,0.0,1.0,0.0,0.0,0.0,54.0,129.0,4.0,131.5,2.0,LOUELLA CABIN,-123.0825,47.993333,,,,54.0,2016
233727,0.0,0.0,0.0,1.0,0.0,0.0,0.0,38.0,169.0,3.5,58.0,2.0,TANEUM CABIN,-120.85278100000001,47.106939000000004,,,,38.0,2016
233728,41.0,0.0,0.0,0.0,434.0,0.0,0.0,0.0,59.0,5.0,37.0,3.0,RUNNING DEER CAMPGROUND,-120.953056,39.735278,10.585365853658537,,,,2016
233729,8.0,0.0,0.0,0.0,62.0,0.0,0.0,0.0,55.0,3.0,25.0,3.0,HORSE CAMPGROUND,-120.953056,39.735278,7.75,,,,2016
233732,0.0,5.0,0.0,0.0,0.0,120.0,0.0,0.0,164.5,30.0,86.0,2.0,JACKSON FLATS,-117.799167,34.360833,,24.0,,,2016
233733,7.0,0.0,0.0,11.0,251.0,0.0,0.0,0.0,29.0,6.0,41.0,2.0,MOUNTAIN OAK,-117.729444,34.394721999999994,35.857142857142854,,,0.0,2016
233734,8.0,0.0,0.0,0.0,203.0,0.0,0.0,0.0,29.0,5.0,46.0,2.0,LAKE CAMPGROUND,-117.72333300000001,34.390556,25.375,,,,2016
233735,41.0,1.0,0.0,65.0,1220.0,26.0,0.0,0.0,30.0,5.0,31.0,2.0,TABLE MOUNTAIN (ANGELES),-117.689444,34.386389,29.75609756097561,26.0,,0.0,2016
233740,0.0,0.0,0.0,1.0,0.0,0.0,0.0,63.0,129.0,4.0,181.0,2.0,HAMMA HAMMA CABIN,-123.113611,47.593333,,,,63.0,2016
233743,0.0,0.0,0.0,1.0,0.0,0.0,0.0,71.0,69.0,3.0,93.0,2.0,INTERROREM CABIN,-122.9925,47.680556,,,,71.0,2016
233754,0.0,1.0,0.0,0.0,0.0,13.0,0.0,0.0,250.0,30.0,65.0,2.0,COYOTE POINT,-120.84472199999999,37.984444,,13.0,,,2016
233768,0.0,1.0,0.0,0.0,0.0,9.0,0.0,0.0,144.0,20.0,73.0,3.0,BIG SILVER GROUP,-120.3625,38.879166999999995,,9.0,,,2016
233770,11.0,0.0,0.0,0.0,203.0,0.0,0.0,0.0,49.0,2.0,153.0,4.0,SHEEP SPRINGS HORSE CAMP,-121.679722,44.578610999999995,18.454545454545453,,,,2016
233772,26.0,0.0,0.0,0.0,1506.0,0.0,0.0,0.0,43.0,4.0,88.0,2.0,DIMOND O,-119.86111100000001,37.825,57.92307692307692,,,,2016
233775,0.0,1.0,0.0,0.0,0.0,54.0,0.0,0.0,149.0,20.0,113.0,2.0,PINES GROUP STANISLAUS,0.0,0.0,,54.0,,,2016
233779,49.0,0.0,0.0,0.0,396.0,0.0,0.0,0.0,40.0,7.0,5.0,2.0,OAK KNOLL CAMPGROUND,-120.80305600000001,38.18265,8.081632653061224,,,,2016
233787,7.0,1.0,0.0,0.0,197.0,17.0,0.0,0.0,41.0,4.0,78.5,2.0,LITTLE FAWN GROUP CAMP,-121.795833,43.963056,28.142857142857142,17.0,,,2016
233788,26.0,0.0,0.0,0.0,345.0,0.0,0.0,0.0,51.0,2.0,153.0,4.0,QUINN MEADOW HORSE CAMP,-121.786667,43.997778000000004,13.26923076923077,,,,2016
233807,106.0,0.0,0.0,0.0,810.0,0.0,0.0,0.0,57.0,4.0,80.5,3.0,FOUR JEFFREY,-118.55,37.25,7.6415094339622645,,,,2016
233818,14.0,0.0,0.0,0.0,108.0,0.0,0.0,0.0,51.0,2.0,37.0,3.0,CAYUSE HORSE CAMP,-121.09361100000001,47.399444,7.714285714285714,,,,2016
233820,0.0,1.0,0.0,0.0,0.0,20.0,0.0,0.0,330.6,50.0,110.5,2.0,CLARK CREEK ORGANIZATION CAMP,-122.582222,43.973611,,20.0,,,2016
233830,45.0,0.0,0.0,0.0,989.0,0.0,0.0,0.0,47.94,4.0,48.0,3.0,OLD SHADY REST CAMPGROUND,-118.96166699999999,37.65,21.977777777777778,,,,2016
233837,26.0,0.0,0.0,6.0,1716.0,0.0,0.0,0.0,41.0,4.0,91.0,2.0,SUMMERDALE CAMPGROUND,-119.642733,37.470647,66.0,,,0.0,2016
233839,3.0,0.0,0.0,0.0,182.0,0.0,0.0,0.0,35.0,3.0,77.5,2.0,DIRT FLAT,-119.844444,37.663333,60.666666666666664,,,,2016
233842,5.0,0.0,0.0,0.0,329.0,0.0,0.0,0.0,45.0,3.0,103.0,2.0,DRY GULCH,-119.844444,37.663333,65.8,,,,2016
233860,83.0,0.0,0.0,10.0,2275.0,0.0,0.0,0.0,47.94,4.0,40.0,3.0,NEW SHADY REST CAMPGROUND,-118.959167,37.65,27.40963855421687,,,0.0,2016
233861,9.0,0.0,0.0,0.0,41.0,0.0,0.0,0.0,37.0,4.0,148.0,3.0,BUCK CREEK CAMPGROUND,-121.328333,48.268333,4.555555555555555,,,,2016
233862,23.0,0.0,0.0,0.0,409.0,0.0,0.0,0.0,37.0,3.0,91.0,2.0,Marble Creek Campground,-121.271667,48.5325,17.782608695652176,,,,2016
233864,19.0,0.0,0.0,2.0,316.0,0.0,0.0,0.0,37.0,4.0,50.0,2.0,Bedal Campground,-121.39138899999999,48.096944,16.63157894736842,,,0.0,2016
233865,12.0,0.0,0.0,1.0,134.0,0.0,0.0,0.0,37.0,4.0,41.0,2.0,Clear Creek Campground,-121.57722199999999,48.221111,11.166666666666666,,,0.0,2016
233866,13.0,0.0,0.0,0.0,267.0,0.0,0.0,0.0,37.0,4.0,73.0,2.0,Red Bridge Campground ,-121.655556,48.070555999999996,20.53846153846154,,,,2016
233870,14.0,0.0,0.0,1.0,343.0,0.0,0.0,0.0,49.0,4.0,26.0,2.0,PARADISE CAMPGROUND,-119.81277800000001,34.542221999999995,24.5,,,0.0,2016
233877,101.0,1.0,4.0,6.0,1594.0,20.0,20.0,0.0,49.0,4.0,67.0,2.0,La Wis Wis Campground,-121.587778,46.673889,15.782178217821782,20.0,5.0,0.0,2016
233879,0.0,0.0,0.0,1.0,0.0,6.0,0.0,0.0,164.0,18.0,184.0,2.0,SOUTH FORK GROUP (CA),-120.520556,38.76,,inf,,0.0,2016
233884,36.0,0.0,0.0,1.0,819.0,0.0,0.0,0.0,69.0,3.0,119.0,4.0,SPINREEL,-124.205556,43.661389,22.75,,,0.0,2016
233885,55.0,3.0,0.0,22.0,230.0,42.0,0.0,309.0,56.73,2.0,29.0,2.0,SUTTON CAMPGROUND,-124.107222,44.054167,4.181818181818182,14.0,,14.045454545454545,2016
233886,24.0,0.0,0.0,4.0,177.0,0.0,0.0,0.0,44.64,3.0,18.0,3.0,TAHKENITCH LANDING,-124.1475,43.796667,7.375,,,0.0,2016
233891,20.0,0.0,0.0,0.0,265.0,0.0,0.0,0.0,33.0,3.0,31.0,2.0,Mineral Park Campground,-121.167778,48.465833,13.25,,,,2016
233894,0.0,1.0,0.0,0.0,0.0,12.0,0.0,0.0,239.5,70.0,198.0,2.5,OCHOCO FOREST CAMP,-120.425278,44.397222,,12.0,,,2016
233895,27.0,2.0,0.0,0.0,530.0,35.0,0.0,0.0,39.0,3.0,57.0,2.0,WALTON LAKE,-120.33666699999999,44.433056,19.62962962962963,17.5,,,2016
233900,37.0,1.0,0.0,2.0,1239.0,25.0,0.0,0.0,42.85,2.0,40.0,2.0,CAPE PERPETUA,-124.100278,44.281110999999996,33.486486486486484,25.0,,0.0,2016
233903,0.0,1.0,0.0,0.0,0.0,9.0,0.0,0.0,499.89,60.0,73.0,3.0,RIVER EDGE,-123.75861100000002,44.377221999999996,,9.0,,,2016
233916,0.0,2.0,0.0,0.0,0.0,19.0,0.0,0.0,336.26,40.0,130.0,2.0,CANAL CREEK,-123.925278,44.393056,,9.5,,,2016
233933,0.0,0.0,0.0,1.0,0.0,0.0,0.0,31.0,329.0,4.0,58.0,2.0,QUAKING ASPEN CABIN,-118.549722,36.124167,,,,31.0,2016
233937,0.0,1.0,0.0,0.0,0.0,18.0,0.0,0.0,0.0,30.0,202.5,2.0,CHATTER CREEK GROUP SITE,-120.885,47.608333,,18.0,,,2016
233938,0.0,1.0,0.0,0.0,0.0,18.0,0.0,0.0,149.0,13.5,65.5,2.0,BRIDGE CREEK GROUP SITE,-120.780833,47.563889,,18.0,,,2016
233940,0.0,1.0,0.0,0.0,0.0,26.0,0.0,0.0,189.0,20.0,63.5,2.0,EIGHTMILE GROUP SITE,-120.76611100000001,47.550833000000004,,26.0,,,2016
233949,13.0,0.0,0.0,0.0,107.0,0.0,0.0,0.0,41.0,4.0,23.0,2.0,PANHANDLE,-117.27138899999999,48.51,8.23076923076923,,,,2016
233950,17.0,0.0,0.0,0.0,198.0,0.0,0.0,0.0,41.0,3.0,34.0,2.0,PIONEER PARK,-117.053611,48.214166999999996,11.647058823529411,,,,2016
233952,0.0,3.0,0.0,0.0,0.0,86.0,0.0,0.0,189.0,30.0,112.0,2.0,SHADY COVE GROUP CAMPGROUND,-117.046833,34.208314,,28.666666666666668,,,2016
233963,14.0,0.0,0.0,0.0,374.0,0.0,0.0,0.0,56.7,2.0,28.0,2.0,ROCK CREEK - SIUSLAW,-124.115,44.184722,26.714285714285715,,,,2016
233964,31.0,0.0,0.0,1.0,314.0,0.0,0.0,15.0,52.64,4.0,26.0,2.0,BLACKBERRY,-123.835,44.371111,10.129032258064516,,,15.0,2016
233965,39.0,0.0,0.0,22.0,1156.0,0.0,0.0,668.0,45.46,2.0,64.0,2.0,TILLICUM,-124.09111100000001,44.367222,29.641025641025642,,,30.363636363636363,2016
233973,0.0,4.0,10.0,0.0,0.0,116.0,344.0,0.0,39.0,5.0,37.5,2.0,SQUAW LAKES,-123.125,42.123056,,29.0,34.4,,2016
233981,0.0,1.0,0.0,0.0,0.0,6.0,0.0,0.0,158.0,37.5,119.0,2.5,CAPPS CROSSING,-120.40611100000001,38.651111,,6.0,,,2016
233984,0.0,0.0,0.0,1.0,0.0,0.0,0.0,38.0,209.5,20.0,161.0,3.0,AMERICAN RIDGE LODGE,-121.17111100000001,46.973889,,,,38.0,2016
233985,0.0,1.0,0.0,0.0,0.0,11.0,0.0,0.0,190.0,10.0,165.0,4.0,KANER FLAT GROUP SITE,-121.130278,47.011389,,11.0,,,2016
233986,0.0,1.0,0.0,0.0,0.0,7.0,0.0,0.0,209.0,20.0,223.0,2.0,INDIAN FLAT GROUP SITE,-121.13972199999999,46.981111,,7.0,,,2016
233987,0.0,1.0,0.0,0.0,0.0,23.0,0.0,0.0,109.0,30.0,155.0,2.0,PINE NEEDLE GROUP SITE,-121.21,46.968889000000004,,23.0,,,2016
233988,0.0,1.0,0.0,0.0,0.0,17.0,0.0,0.0,189.0,15.0,139.0,3.0,CLEAR LAKE GROUP SITE,-121.266667,46.631111,,17.0,,,2016
233993,0.0,4.0,0.0,0.0,0.0,115.0,0.0,0.0,19.0,8.0,47.0,1.0,FISHERMANS GROUP,-117.110822,34.246708,,28.75,,,2016
233997,0.0,1.0,0.0,0.0,0.0,12.0,0.0,0.0,196.5,22.5,151.5,2.5,EAST KACHESS GROUP SITE,-121.21888899999999,47.306944,,12.0,,,2016
233999,0.0,1.0,0.0,0.0,0.0,21.0,0.0,0.0,129.0,22.0,64.0,2.0,Pine Flats Group Campground,-120.425,47.758611,,21.0,,,2016
234000,0.0,1.0,0.0,0.0,0.0,20.0,0.0,0.0,194.0,37.5,82.0,2.0,TENT PEG GROUP,-117.08333300000001,34.265278,,20.0,,,2016
234001,37.0,0.0,0.0,1.0,772.0,0.0,0.0,0.0,49.0,4.0,34.0,2.0,LOS PRIETOS,-119.80916699999999,34.541667,20.864864864864863,,,0.0,2016
234006,0.0,0.0,0.0,1.0,0.0,0.0,0.0,29.0,324.0,8.0,182.0,3.0,HARVEY WEST CABIN,-120.275,38.755,,,,29.0,2016
234011,27.0,11.0,0.0,22.0,0.0,56.0,0.0,14.0,84.0,20.0,26.5,3.0,CAMP 9,-118.42916699999999,35.698333,0.0,5.090909090909091,,0.6363636363636364,2016
234015,70.0,14.0,0.0,39.0,3101.0,396.0,0.0,919.0,46.0,4.0,34.0,2.0,PINNACLES CAMPGROUND,-121.176111,36.466389,44.3,28.285714285714285,,23.564102564102566,2016
234016,14.0,0.0,0.0,0.0,170.0,0.0,0.0,0.0,41.0,3.0,28.5,2.0,COTTONWOOD CAMPGROUND (WA),-121.02611100000001,46.907222,12.142857142857142,,,,2016
234017,39.0,0.0,0.0,0.0,108.0,0.0,0.0,0.0,0.0,4.5,116.0,3.0,Hause Creek Campground,-121.07638899999999,46.675556,2.769230769230769,,,,2016
234018,18.0,0.0,0.0,0.0,240.0,0.0,0.0,0.0,37.0,4.0,28.0,2.0,HELLS CROSSING CAMPGROUND,-121.265833,46.964721999999995,13.333333333333334,,,,2016
234019,16.0,0.0,0.0,0.0,276.0,0.0,0.0,0.0,37.0,4.0,27.0,2.0,Little Naches Campground,-121.097778,46.990278,17.25,,,,2016
234020,8.0,0.0,4.0,0.0,109.0,0.0,0.0,0.0,41.0,4.0,21.0,2.0,COUGAR FLAT,-121.23361100000001,46.916944,13.625,,0.0,,2016
234021,17.0,0.0,0.0,0.0,118.0,0.0,0.0,0.0,34.0,3.5,52.5,3.0,PLEASANT VALLEY CAMPGROUND,-121.325556,46.942778000000004,6.9411764705882355,,,,2016
234022,20.0,0.0,4.0,0.0,276.0,0.0,81.0,0.0,37.0,4.0,28.0,3.0,SAWMILL FLAT CAMPGROUND,-121.09527800000001,46.974444,13.8,,20.25,,2016
234023,14.0,0.0,0.0,0.0,261.0,0.0,0.0,0.0,41.0,4.0,36.0,2.0,CEDAR SPRINGS CAMPGROUND (WA) ,-121.16305600000001,46.973333000000004,18.642857142857142,,,,2016
234024,19.0,0.0,0.0,1.0,340.0,0.0,0.0,0.0,0.0,4.0,106.0,3.0,Soda Springs Campground,-121.21416699999999,46.925694,17.894736842105264,,,0.0,2016
234025,14.0,0.0,0.0,0.0,163.0,0.0,0.0,0.0,37.0,4.0,16.0,2.0,Willows Campground,-121.03916699999999,46.6725,11.642857142857142,,,,2016
234026,10.0,0.0,0.0,0.0,146.0,0.0,0.0,0.0,37.0,4.0,21.0,2.0,Windy Point Campground,-120.9075,46.693333,14.6,,,,2016
234027,34.0,0.0,0.0,0.0,529.0,0.0,0.0,0.0,45.0,3.0,38.0,2.0,LODGEPOLE CAMPGROUND (WA),-121.38444399999999,46.915833,15.558823529411764,,,,2016
234039,163.0,0.0,0.0,1.0,4438.0,0.0,0.0,0.0,36.0,4.0,69.0,2.0,MANZANITA LAKE,-121.56388899999999,40.529167,27.226993865030675,,,0.0,2016
234040,45.0,0.0,0.0,3.0,889.0,0.0,0.0,0.0,30.0,3.0,84.0,2.0,SUMMIT LAKE SOUTH,-121.42361100000001,40.490278,19.755555555555556,,,0.0,2016
234041,41.0,0.0,0.0,3.0,883.0,0.0,0.0,0.0,33.0,4.0,106.0,2.0,SUMMIT LAKE NORTH,-121.425,40.494444,21.536585365853657,,,0.0,2016
234042,0.0,8.0,0.0,0.0,0.0,97.0,0.0,0.0,80.0,19.0,78.0,2.0,LOST CREEK GROUP,-121.516667,40.5625,,12.125,,,2016
234060,92.0,2.0,12.0,0.0,1584.0,44.0,500.0,0.0,24.0,3.0,36.0,2.0,NEWHALEM CAMPGROUND,-121.26111100000001,48.675,17.217391304347824,22.0,41.666666666666664,,2016
234061,75.0,0.0,0.0,0.0,350.0,0.0,0.0,0.0,36.0,3.0,28.0,3.0,KETTLE FALLS CAMPGROUND,-118.12003100000001,48.286383,4.666666666666667,,,,2016
234062,67.0,0.0,0.0,0.0,719.0,0.0,0.0,0.0,36.0,4.0,91.0,3.0,FORT SPOKANE,-118.30915300000001,47.904603,10.73134328358209,,,,2016
234064,78.0,0.0,0.0,0.0,705.0,0.0,0.0,0.0,36.0,4.0,48.0,3.0,SPRING CANYON,-118.939072,47.933056,9.038461538461538,,,,2016
234065,0.0,1.0,0.0,0.0,0.0,9.0,0.0,0.0,110.0,25.0,46.0,2.0,EVANS GROUP CAMP,-118.11497800000001,48.702614000000004,,9.0,,,2016
234066,0.0,2.0,0.0,0.0,0.0,21.0,0.0,0.0,110.0,25.0,119.0,2.0,KETTLE FALLS LOCUST GROVE GROUP SITE,-118.11497800000001,48.592411,,10.5,,,2016
234067,0.0,1.0,0.0,0.0,0.0,10.0,0.0,0.0,165.0,20.0,124.5,3.0,GIFFORD GROUP SITE,-118.311903,48.286383,,10.0,,,2016
234068,0.0,3.0,0.0,0.0,0.0,36.0,0.0,0.0,110.0,25.0,142.0,3.0,HUNTERS GROUP SITE,-118.311903,48.124625,,12.0,,,2016
234069,0.0,2.0,0.0,0.0,0.0,26.0,0.0,0.0,110.0,22.5,149.5,2.5,FORT SPOKANE GROUP SITE,-118.311903,47.908803000000006,,13.0,,,2016
234071,0.0,2.0,0.0,0.0,0.0,33.0,0.0,0.0,120.0,16.0,119.0,3.0,SPRING CANYON GROUP SITE,-118.939072,47.933056,,16.5,,,2016
234072,116.0,2.0,42.0,0.0,625.0,36.0,135.0,0.0,36.0,4.0,10.0,2.0,TUTTLETOWN RECREATION AREA,-120.50805600000001,37.98388900000001,5.387931034482759,18.0,3.2142857142857144,,2016
234073,120.0,0.0,20.0,0.0,1371.0,0.0,277.0,0.0,44.0,4.0,15.0,2.0,GLORY HOLE RECREATION AREA,-120.540278,38.0075,11.425,,13.85,,2016
234074,0.0,0.0,0.0,62.0,316.0,40.0,0.0,2297.0,53.0,4.0,50.0,2.0,FISHERMENS BEND,-122.510278,44.7575,inf,inf,,37.04838709677419,2016
234076,46.0,0.0,0.0,0.0,1212.0,0.0,0.0,0.0,36.0,4.0,64.0,3.0,LOON LAKE RECREATION SITE,-123.840278,43.597221999999995,26.347826086956523,,,,2016
234085,129.0,1.0,0.0,2.0,762.0,8.0,0.0,0.0,46.0,4.0,23.5,3.0,Crane Prairie Campground,-121.760833,43.79638900000001,5.906976744186046,8.0,,0.0,2016
234086,29.0,0.0,0.0,0.0,373.0,0.0,0.0,0.0,45.0,4.0,33.0,2.0,Big Creek,-121.97027800000001,46.735278,12.862068965517242,,,,2016
234088,0.0,2.0,0.0,0.0,0.0,38.0,0.0,0.0,100.0,28.5,189.5,2.0,LOWER GOODELL GROUP CAMPGROUND,-121.265833,48.673333,,19.0,,,2016
234089,0.0,1.0,0.0,0.0,0.0,25.0,0.0,0.0,100.0,20.0,38.0,2.0,UPPER GOODELL GROUP CAMPGROUND,-121.265833,48.673333,,25.0,,,2016
234091,0.0,0.0,0.0,1.0,0.0,0.0,0.0,79.0,139.0,4.0,153.0,2.0,GOVT MINERAL SPRINGS GUARD STA,-121.995833,45.884167,,,,79.0,2016
234103,11.0,0.0,0.0,0.0,180.0,0.0,0.0,0.0,39.0,2.0,75.5,3.0,WILLOW PRAIRIE HORSECAMP,-122.39111100000001,42.405833,16.363636363636363,,,,2016
234106,8.0,0.0,7.0,0.0,281.0,0.0,169.0,0.0,39.0,3.0,30.0,2.0,FREMONT CAMPGROUND,-119.820278,34.543056,35.125,,24.142857142857142,,2016
234111,11.0,0.0,0.0,12.0,300.0,0.0,0.0,0.0,53.0,6.0,46.5,2.0,SOUTH SHORE CAMPGROUND,-120.23472199999999,38.533056,27.272727272727273,,,0.0,2016
234113,11.0,0.0,0.0,0.0,200.0,0.0,0.0,0.0,49.0,3.5,14.0,2.0,BOYINGTON MILL,-120.090833,39.4375,18.181818181818183,,,,2016
234114,20.0,0.0,3.0,0.0,722.0,0.0,0.0,0.0,49.0,4.0,33.0,2.0,BOCA CAMPGROUND,-120.105556,39.394166999999996,36.1,,0.0,,2016
234115,37.0,0.0,0.0,0.0,637.0,0.0,0.0,0.0,49.0,4.0,19.0,2.0,BOCA REST CAMPGROUND,-120.08638899999998,39.419167,17.216216216216218,,,,2016
234116,15.0,1.0,0.0,0.0,197.0,27.0,0.0,0.0,49.0,5.0,18.5,2.0,BOCA SPRING,-120.07861100000001,39.4225,13.133333333333333,27.0,,,2016
234117,41.0,0.0,0.0,0.0,500.0,0.0,0.0,0.0,49.0,4.0,19.5,2.0,LAKESIDE (TRUCKEE),-120.17222199999999,39.384444,12.195121951219512,,,,2016
234123,0.0,0.0,0.0,1.0,0.0,0.0,0.0,43.0,129.0,3.0,71.0,3.0,DEER CREEK GUARD STATION CABIN,-119.322778,44.187222,,,,43.0,2016
234124,0.0,0.0,0.0,1.0,0.0,0.0,0.0,31.0,109.0,2.0,18.0,2.0,Murderers Creek Guard Station,-119.275833,44.260556,,,,31.0,2016
234125,0.0,0.0,0.0,1.0,0.0,0.0,0.0,68.0,89.0,2.0,176.5,2.0,FALL MOUNTAIN LOOKOUT CABIN,-119.13138899999998,44.289722,,,,68.0,2016
234126,0.0,0.0,0.0,1.0,0.0,0.0,0.0,52.0,74.0,2.0,53.0,2.0,TEANAWAY GUARD STATION,-120.855278,47.359722,,,,52.0,2016
234131,0.0,0.0,0.0,1.0,0.0,0.0,0.0,78.0,99.0,2.0,182.0,2.0,CALPINE LOOKOUT,-120.462222,39.678889,,,,78.0,2016
234133,0.0,1.0,0.0,0.0,0.0,28.0,0.0,0.0,235.0,27.5,135.0,3.0,SILVER CREEK GROUP CAMPGROUND,-120.39,38.826944,,28.0,,,2016
234135,30.0,0.0,0.0,0.0,674.0,0.0,0.0,0.0,59.0,6.0,78.0,2.0,FASHODA,-120.397461,38.8682,22.466666666666665,,,,2016
234136,0.0,0.0,0.0,1.0,0.0,0.0,0.0,44.0,234.0,4.0,155.5,3.0,COLD SPRINGS CABIN,-120.131667,44.356667,,,,44.0,2016
234137,19.0,0.0,0.0,0.0,126.0,0.0,0.0,0.0,41.0,4.0,23.5,2.0,EDGEWATER CAMPGROUND,-117.405833,48.755833,6.631578947368421,,,,2016
234138,0.0,0.0,0.0,1.0,0.0,0.0,0.0,60.0,89.0,2.0,79.0,2.0,TAMARACK CABIN,-119.66361100000002,44.874167,,,,60.0,2016
234140,48.0,0.0,5.0,6.0,255.0,0.0,0.0,0.0,49.0,5.0,65.0,3.0,PERRY SOUTH CAMPGROUND,-121.44861100000001,44.587778,5.3125,,0.0,0.0,2016
234144,0.0,0.0,0.0,1.0,0.0,0.0,0.0,42.0,109.0,3.0,93.5,2.0,MUSICK GUARD STATION,-122.64138899999999,43.581111,,,,42.0,2016
234145,0.0,0.0,0.0,1.0,0.0,0.0,0.0,39.0,109.0,3.0,48.0,3.0,DITCH CREEK GUARD STATION CAB,-119.34638899999999,45.118889,,,,39.0,2016
234146,0.0,1.0,0.0,0.0,0.0,15.0,0.0,0.0,139.0,30.0,139.0,2.0,STEAMBOAT BALL FIELD GROUP SITE,-122.72638899999998,43.34027800000001,,15.0,,,2016
234147,0.0,1.0,0.0,0.0,0.0,11.0,0.0,0.0,229.0,100.0,181.0,2.0,WOLF CREEK GROUP SITE,-122.92138899999999,43.235556,,11.0,,,2016
234148,0.0,1.0,0.0,0.0,0.0,17.0,0.0,0.0,209.0,30.0,197.0,2.0,Deer Flat Group Site (Horseshoe Bend Campground),-122.686944,43.29277800000001,,17.0,,,2016
234149,0.0,0.0,0.0,1.0,0.0,0.0,0.0,34.0,89.0,2.0,179.5,2.0,PICKETT BUTTE LOOKOUT,-122.849722,42.95,,,,34.0,2016
234154,0.0,0.0,0.0,1.0,0.0,0.0,0.0,44.0,89.0,2.5,182.0,2.0,BOLAN MOUNTAIN LOOKOUT,-123.45944399999999,42.016110999999995,,,,44.0,2016
234155,0.0,0.0,0.0,1.0,0.0,0.0,0.0,65.0,79.0,2.0,182.0,2.0,BALD KNOB LOOKOUT,-124.125,42.625,,,,65.0,2016
234156,39.0,0.0,0.0,0.0,964.0,0.0,0.0,0.0,40.0,4.0,30.0,2.0,BUTTE LAKE,-121.305278,40.565,24.71794871794872,,,,2016
234157,0.0,0.0,0.0,1.0,0.0,0.0,0.0,36.0,39.0,3.0,49.5,2.0,WILLOW PRAIRIE CABIN,-122.391667,42.408333,,,,36.0,2016
234158,0.0,0.0,0.0,1.0,0.0,0.0,0.0,95.0,79.0,2.0,179.0,2.0,LAKE OF THE WOODS LOOKOUT,-124.12833300000001,42.593889000000004,,,,95.0,2016
234159,0.0,0.0,0.0,1.0,0.0,0.0,0.0,70.0,74.0,2.0,180.0,2.0,SNOW CAMP LOOKOUT,-124.165278,42.344167,,,,70.0,2016
234160,0.0,0.0,0.0,1.0,0.0,0.0,0.0,40.0,89.0,4.0,38.5,2.0,PACKERS CABIN,-124.084167,42.2475,,,,40.0,2016
234162,0.0,6.0,0.0,0.0,0.0,100.0,0.0,0.0,120.0,20.0,97.0,2.0,BUTTE LAKE GROUP,-121.305278,40.565,,16.666666666666668,,,2016
234165,0.0,0.0,0.0,1.0,0.0,0.0,0.0,46.0,89.0,3.0,159.0,2.0,IMNAHA GUARD STATION,-122.325,42.708333,,,,46.0,2016
234168,0.0,0.0,0.0,1.0,0.0,0.0,0.0,55.0,129.0,9.0,166.0,2.0,LUDLUM HOUSE,-124.103333,42.033056,,,,55.0,2016
234172,0.0,4.0,0.0,0.0,0.0,84.0,0.0,0.0,159.0,25.0,119.0,2.0,BEAR RIVER GROUP CAMPGROUND,-120.21888899999999,38.533889,,21.0,,,2016
234173,0.0,0.0,0.0,1.0,0.0,0.0,0.0,42.0,119.0,2.5,182.0,2.0,INDIAN RIDGE LOOKOUT,-122.253611,44.005556,,,,42.0,2016
234177,0.0,1.0,0.0,0.0,0.0,7.0,0.0,0.0,80.0,25.0,149.0,2.0,OLD MINERS MEADOW GROUP USE,-122.35083300000001,44.585833,,7.0,,,2016
234178,0.0,0.0,0.0,1.0,0.0,0.0,0.0,37.0,84.0,3.0,182.0,1.0,EVERGREEN MOUNTAIN LOOKOUT,-121.271667,47.838889,,,,37.0,2016
234179,0.0,0.0,0.0,1.0,0.0,0.0,0.0,50.0,89.0,3.0,82.0,2.0,WHISKY CAMP GUARD STATION,-122.734444,42.9125,,,,50.0,2016
234183,0.0,0.0,0.0,1.0,0.0,0.0,0.0,31.0,89.0,2.0,30.0,2.0,ASPEN CABIN,-120.192222,42.291111,,,,31.0,2016
234184,0.0,0.0,0.0,1.0,0.0,0.0,0.0,30.0,89.0,2.0,105.5,2.0,CURRIER GUARD STATION,-120.905556,42.730833000000004,,,,30.0,2016
234185,0.0,0.0,0.0,1.0,0.0,0.0,0.0,78.0,49.0,2.0,155.0,2.0,DRAKE PEAK LOOKOUT,-120.155556,42.314167,,,,78.0,2016
234186,0.0,0.0,0.0,1.0,0.0,0.0,0.0,69.0,49.0,2.0,157.0,2.0,BALD BUTTE LOOKOUT,-120.78888899999998,42.614167,,,,69.0,2016
234187,0.0,0.0,0.0,1.0,0.0,0.0,0.0,8.0,89.0,2.5,174.0,2.0,HAGER MOUNTAIN LOOKOUT,-121.043889,43.023333,,,,8.0,2016
234188,0.0,0.0,0.0,1.0,0.0,0.0,0.0,29.0,109.0,5.0,114.0,3.0,TIMPANOGAS,-122.11666699999999,43.41388900000001,,,,29.0,2016
234189,0.0,0.0,1.0,0.0,0.0,0.0,0.0,11.0,139.0,3.0,168.0,2.0,WARNER MOUNTAIN LOOKOUT,-122.36638300000001,43.543431,,,0.0,inf,2016
234193,23.0,2.0,0.0,0.0,81.0,19.0,0.0,0.0,39.0,12.0,55.5,3.0,HAUSER SAND CAMPING,-124.246389,43.435278000000004,3.5217391304347827,9.5,,,2016
234194,15.0,1.0,0.0,0.0,152.0,8.0,0.0,0.0,39.0,10.0,31.0,3.0,SILTCOOS SAND CAMPING,-124.11694399999999,43.956389,10.133333333333333,8.0,,,2016
234195,13.0,1.0,0.0,0.0,164.0,6.0,0.0,0.0,39.0,10.0,29.0,3.0,SOUTH JETTY SAND CAMPING,-124.11694399999999,43.956389,12.615384615384615,6.0,,,2016
234196,25.0,2.0,0.0,0.0,257.0,14.0,0.0,0.0,39.0,10.0,31.0,3.0,UMPQUA SAND CAMPING,-124.21194399999999,43.631389,10.28,7.0,,,2016
234200,33.0,3.0,0.0,0.0,145.0,19.0,0.0,0.0,39.0,11.0,43.0,3.0,HORSFALL SAND CAMPING,-124.246389,43.435278000000004,4.393939393939394,6.333333333333333,,,2016
234201,16.0,0.0,0.0,0.0,75.0,0.0,0.0,0.0,39.0,12.0,33.0,3.0,SPINREEL SAND CAMPING,-124.246389,43.435278000000004,4.6875,,,,2016
234203,0.0,1.0,0.0,0.0,0.0,14.0,0.0,0.0,134.0,16.5,56.0,2.5,BEAVER SULPHUR,-123.03277800000001,42.113056,,14.0,,,2016
234205,0.0,0.0,0.0,1.0,0.0,0.0,0.0,29.0,139.0,3.0,15.0,2.0,MINERS RETREAT,-118.498056,44.796667,,,,29.0,2016
234206,0.0,0.0,0.0,1.0,0.0,0.0,0.0,32.0,169.0,4.0,19.5,2.0,CONGO GULCH,-118.498333,44.79638900000001,,,,32.0,2016
234210,28.0,0.0,0.0,0.0,465.0,0.0,0.0,0.0,49.0,4.0,18.0,2.0,PROSSER FAMILY,-120.160556,39.377778,16.607142857142858,,,,2016
234212,0.0,0.0,0.0,1.0,0.0,0.0,0.0,24.0,144.0,3.5,179.5,3.5,PEAVY CABIN,-118.265,44.91,,,,24.0,2016
234213,0.0,0.0,0.0,1.0,0.0,0.0,0.0,40.0,99.0,3.0,54.5,2.0,ANTLERS GUARD STATION CABIN,-118.2875,44.633611,,,,40.0,2016
234214,17.0,2.0,0.0,0.0,329.0,36.0,0.0,0.0,45.7,4.0,24.0,2.0,BLACK CANYON CAMPGROUND,-122.597222,43.806667,19.352941176470587,18.0,,,2016
234216,0.0,1.0,0.0,0.0,0.0,24.0,0.0,0.0,54.88,8.0,73.0,2.0,HARD ROCK CAMPGROUND,-122.20277800000001,44.038610999999996,,24.0,,,2016
234218,0.0,1.0,0.0,0.0,0.0,19.0,0.0,0.0,82.4,20.0,136.0,2.0,RED DIAMOND CAMPGROUND,-122.17277800000001,44.002221999999996,,19.0,,,2016
234219,18.0,3.0,0.0,0.0,293.0,23.0,0.0,0.0,49.36,4.0,114.5,3.0,SHADOW BAY,-122.04166699999999,43.693056,16.27777777777778,7.666666666666667,,,2016
234224,0.0,0.0,0.0,1.0,0.0,0.0,0.0,21.0,179.0,3.0,15.0,2.0,POSO GUARD STATION CABIN,-118.64333300000001,35.8075,,,,21.0,2016
234225,0.0,0.0,0.0,1.0,0.0,0.0,0.0,15.0,0.0,6.0,89.0,2.0,MOUNTAIN HOME GUARD STATION CABIN,-118.700278,36.232778,,,,15.0,2016
234239,0.0,0.0,0.0,1.0,0.0,0.0,0.0,45.0,309.94,6.0,165.0,2.0,CLACKAMAS LAKE HISTORIC CABIN,-121.74888899999999,45.099167,,,,45.0,2016
234247,0.0,0.0,0.0,1.0,0.0,0.0,0.0,20.0,64.5,2.5,182.0,1.0,CLEAR LAKE CABIN LOOKOUT,-121.71611100000001,45.149444,,,,20.0,2016
234248,0.0,0.0,0.0,1.0,0.0,0.0,0.0,61.0,109.0,3.0,182.0,2.0,FIVEMILE BUTTE LOOKOUT,-121.45833300000001,45.404722,,,,61.0,2016
234250,0.0,0.0,0.0,1.0,0.0,0.0,0.0,39.0,249.0,5.0,182.0,3.0,ANTHONY LAKE GUARD STATION,-118.230556,44.962222,,,,39.0,2016
234262,0.0,0.0,0.0,1.0,0.0,0.0,0.0,54.0,131.5,4.0,182.0,2.0,BEAR BASIN LOOKOUT AND CABIN,-123.74,41.809166999999995,,,,54.0,2016
234267,0.0,0.0,0.0,34.0,0.0,0.0,0.0,499.0,69.0,3.0,51.0,3.0,HORSFALL BEACH,-124.27611100000001,43.453610999999995,,,,14.676470588235293,2016
234269,0.0,0.0,0.0,1.0,0.0,0.0,0.0,29.0,109.0,2.0,86.0,2.0,WENATCHEE GUARD STATION,-117.375,46.125,,,,29.0,2016
234270,0.0,0.0,0.0,1.0,0.0,0.0,0.0,9.0,129.0,2.0,6.0,2.0,GODMAN GUARD STATION,-117.752778,46.125,,,,9.0,2016
234271,0.0,0.0,0.0,1.0,0.0,0.0,0.0,32.0,69.0,2.0,37.5,2.0,CLEARWATER LOOKOUT CABIN,-117.625,46.25,,,,32.0,2016
234272,0.0,0.0,0.0,1.0,0.0,0.0,0.0,23.0,189.0,6.0,84.0,3.0,CLEARWATER BIG HOUSE,-117.568056,46.200556,,,,23.0,2016
234274,0.0,1.0,0.0,0.0,0.0,18.0,0.0,0.0,189.0,12.0,148.5,3.0,MAGONE LAKE,-118.9094,44.552656,,18.0,,,2016
234279,0.0,0.0,0.0,1.0,0.0,0.0,0.0,25.0,169.0,4.0,53.0,3.0,CARETAKERS CABIN,-118.498056,44.796944,,,,25.0,2016
234289,0.0,2.0,0.0,0.0,0.0,18.0,0.0,0.0,204.0,30.0,170.5,3.0,CONTORTA POINT GROUP CAMP,-122.0075,43.461389000000004,,9.0,,,2016
234290,67.0,0.0,0.0,7.0,2128.0,0.0,0.0,0.0,49.7,4.0,71.5,3.0,COLDWATER CAMPGROUND,-118.996944,37.599167,31.761194029850746,,,0.0,2016
234306,0.0,1.0,0.0,0.0,0.0,16.0,0.0,0.0,84.0,25.0,87.5,1.0,EAGLE CREEK OVERLOOK GRP SITE,-121.930833,45.641667,,16.0,,,2016
234310,0.0,1.0,0.0,0.0,0.0,26.0,0.0,0.0,129.0,21.5,112.5,3.0,LOST LAKE GROUP UNIT,-119.05083300000001,48.8525,,26.0,,,2016
234311,48.0,0.0,0.0,0.0,2169.0,0.0,0.0,0.0,55.0,4.0,80.0,3.0,CONVICT LAKE CAMPGROUND,-118.85083300000001,37.598889,45.1875,,,,2016
234323,30.0,0.0,0.0,0.0,4.0,0.0,0.0,0.0,0.0,4.5,131.0,2.0,LIVE OAK SOUTH,-118.46111100000002,35.702778,0.13333333333333333,,,,2016
234324,0.0,0.0,0.0,1.0,0.0,0.0,0.0,28.0,329.0,5.0,43.0,2.0,WISHON CABIN,-118.6625,36.1875,,,,28.0,2016
234329,93.0,0.0,0.0,1.0,3564.0,0.0,0.0,0.0,49.7,4.0,108.0,3.0,TWIN LAKES CAMPGROUND,-119.00694399999999,37.615833,38.32258064516129,,,0.0,2016
234330,63.0,0.0,0.0,0.0,1111.0,0.0,0.0,0.0,38.64,4.0,103.0,3.0,SILVER LAKE CAMPGROUND JUNE LAKE (CA,-119.12638899999999,37.783056,17.634920634920636,,,,2016
234344,0.0,1.0,0.0,0.0,0.0,8.0,0.0,0.0,184.0,15.5,214.0,3.5,CARTER MEADOWS HORSE GROUP,-122.910278,41.221111,,8.0,,,2016
234348,0.0,4.0,0.0,0.0,0.0,41.0,0.0,0.0,159.0,20.0,114.0,3.0,NORDHEIMER GROUP SITES,-123.36388899999999,41.298611,,10.25,,,2016
234349,0.0,1.0,0.0,0.0,0.0,22.0,0.0,0.0,159.0,22.5,147.0,3.0,INDIAN SCOTTY GROUP SITE,-123.081944,41.632222,,22.0,,,2016
234363,0.0,0.0,0.0,1.0,0.0,0.0,0.0,32.0,264.0,4.0,167.5,3.0,TWO COLOR GUARD STATION,-117.435556,45.05027800000001,,,,32.0,2016
234382,24.0,3.0,0.0,0.0,276.0,0.0,0.0,0.0,59.0,4.0,31.5,2.0,SPANISH CREEK CAMPGROUND,-120.964444,40.026944,11.5,0.0,,,2016
234400,9.0,2.0,0.0,0.0,0.0,12.0,0.0,0.0,109.0,15.5,37.5,2.5,SARAH TOTTEN CAMPGROUND,-123.043056,41.784167,0.0,6.0,,,2016
234401,12.0,4.0,0.0,0.0,0.0,108.0,0.0,0.0,89.5,30.0,186.0,2.0,CURLY JACK CAMPGROUND,-123.382778,41.793611,0.0,27.0,,,2016
234403,0.0,0.0,0.0,1.0,0.0,0.0,0.0,75.0,159.0,2.0,180.0,2.0,GIRARD RIDGE LOOKOUT,-122.27861100000001,41.128056,,,,75.0,2016
234404,0.0,0.0,0.0,1.0,0.0,0.0,0.0,48.0,159.0,2.0,62.0,2.0,POST CREEK GUARD STATION,-122.916944,40.233333,,,,48.0,2016
234405,0.0,0.0,0.0,1.0,0.0,0.0,0.0,63.0,159.0,4.0,71.0,2.0,FOREST GLEN GUARD STATION,-123.31694399999999,40.366944000000004,,,,63.0,2016
234436,0.0,0.0,0.0,1.0,0.0,0.0,0.0,80.0,84.0,3.0,181.5,2.0,LITTLE MT. HOFFMAN LOOKOUT,-121.659722,41.578610999999995,,,,80.0,2016
234455,21.0,0.0,0.0,0.0,231.0,0.0,0.0,0.0,24.0,3.0,23.0,1.0,TREE OF HEAVEN CAMPGROUND,-123.043056,41.784167,11.0,,,,2016
234457,0.0,0.0,0.0,1.0,0.0,0.0,0.0,46.0,209.0,6.0,99.0,2.0,CAMP FOUR AND HALF CABIN,-119.28861100000002,36.862221999999996,,,,46.0,2016
234458,0.0,0.0,0.0,1.0,0.0,0.0,0.0,41.0,259.0,5.0,128.0,2.0,BIG MEADOWS CABIN,-118.835,36.718889000000004,,,,41.0,2016
234461,0.0,0.0,0.0,1.0,0.0,0.0,0.0,45.0,64.0,3.0,38.0,2.0,SUMMIT GUARD STATION BUNKHOUSE,-118.20888899999999,45.47638900000001,,,,45.0,2016
234462,0.0,0.0,0.0,1.0,0.0,0.0,0.0,29.0,89.0,4.0,26.0,2.0,FRY MEADOWS GUARD STATION,-117.831667,45.786667,,,,29.0,2016
234467,0.0,0.0,0.0,1.0,0.0,0.0,0.0,32.0,159.0,3.0,174.0,2.0,MCCARTHY POINT LOOKOUT,-121.683333,40.187778,,,,32.0,2016
234477,0.0,0.0,0.0,1.0,0.0,0.0,0.0,36.0,89.0,2.0,154.5,2.0,GREEN RIDGE LOOKOUT,-121.60861100000001,44.533889,,,,36.0,2016
234493,0.0,0.0,0.0,1.0,0.0,0.0,0.0,59.0,109.0,4.0,161.0,2.0,AMERICAN RIVER GUARD STATION,-121.16555600000001,46.977778,,,,59.0,2016
234498,0.0,1.0,0.0,0.0,0.0,9.0,0.0,0.0,109.0,16.0,35.0,3.0,SALMON COVE GROUP SITE,-121.27666699999999,46.960833,,9.0,,,2016
234502,39.0,0.0,0.0,0.0,397.0,0.0,0.0,0.0,52.64,4.0,21.0,2.0,ALDER DUNE,-124.10194399999999,44.069167,10.179487179487179,,,,2016
234503,0.0,1.0,0.0,0.0,0.0,10.0,0.0,0.0,189.5,22.5,93.0,3.0,SOUTH FORK GROUP SITE,-121.132222,46.62083300000001,,10.0,,,2016
234524,0.0,2.0,0.0,0.0,0.0,22.0,0.0,0.0,60.0,10.0,136.5,2.0,JUNIPER LAKE GROUP,-121.295833,40.451111,,11.0,,,2016
234530,8.0,0.0,0.0,0.0,20.0,0.0,0.0,0.0,24.0,4.5,18.0,1.0,RIBBONWOOD EQUESTRIAN CG,-116.454722,33.576111,2.5,,,,2016
234534,10.0,0.0,1.0,0.0,169.0,0.0,37.0,0.0,57.0,4.0,50.5,2.0,UNION FLAT,-120.744722,39.5675,16.9,,37.0,,2016
234535,16.0,0.0,0.0,0.0,295.0,0.0,0.0,0.0,57.0,4.0,49.0,3.0,PACKSADDLE,-120.649722,39.623889,18.4375,,,,2016
234536,9.0,0.0,0.0,0.0,184.0,0.0,0.0,0.0,45.0,4.0,38.5,2.0,BERGER,-120.644722,39.627778,20.444444444444443,,,,2016
234537,19.0,0.0,0.0,0.0,298.0,0.0,0.0,0.0,45.0,4.0,53.0,2.0,DIABLO,-120.637778,39.633055999999996,15.68421052631579,,,,2016
234538,19.0,0.0,0.0,0.0,267.0,0.0,0.0,0.0,57.0,5.0,46.0,2.0,CAL-IDA,-120.99666699999999,39.52,14.052631578947368,,,,2016
234539,26.0,0.0,0.0,1.0,854.0,0.0,0.0,0.0,57.0,4.0,101.0,2.0,SARDINE LAKE,-120.6175,39.618889,32.84615384615385,,,0.0,2016
234540,29.0,0.0,0.0,0.0,548.0,0.0,0.0,0.0,57.0,4.0,53.5,3.0,SALMON CREEK,-120.612222,39.623611,18.896551724137932,,,,2016
234541,19.0,0.0,0.0,0.0,202.0,0.0,0.0,0.0,57.0,4.0,27.0,2.0,LOGANVILLE,-120.661111,39.564721999999996,10.631578947368421,,,,2016
234542,15.0,0.0,0.0,0.0,337.0,0.0,0.0,0.0,57.0,6.0,57.0,2.0,FIDDLE CREEK,-120.9925,39.518333,22.466666666666665,,,,2016
234543,16.0,0.0,0.0,0.0,213.0,0.0,0.0,0.0,49.0,5.0,26.0,2.0,RAMSHORN,-120.91138899999999,39.539444,13.3125,,,,2016
234544,47.0,0.0,0.0,0.0,878.0,0.0,0.0,0.0,57.0,4.0,58.5,3.0,WILD PLUM,-120.599167,39.566389,18.680851063829788,,,,2016
234545,16.0,0.0,0.0,0.0,175.0,0.0,0.0,0.0,45.0,4.0,27.0,2.0,SIERRA,-120.55861100000001,39.630833,10.9375,,,,2016
234546,21.0,0.0,1.0,0.0,253.0,0.0,17.0,0.0,57.0,4.0,34.5,2.0,CHAPMAN,-120.544722,39.629444,12.047619047619047,,17.0,,2016
234547,17.0,0.0,0.0,0.0,313.0,0.0,0.0,0.0,57.0,5.0,78.0,2.0,CARLTON,-120.99972199999999,39.519166999999996,18.41176470588235,,,,2016
234548,17.0,0.0,0.0,0.0,438.0,0.0,0.0,0.0,67.0,4.0,123.0,3.0,INDIAN VALLEY,-120.983333,39.513333,25.764705882352942,,,,2016
234549,10.0,0.0,0.0,0.0,271.0,0.0,0.0,0.0,57.0,6.0,137.0,2.0,ROCKY REST,-120.97444399999999,39.513889,27.1,,,,2016
234554,0.0,1.0,0.0,0.0,0.0,30.0,0.0,0.0,109.0,28.5,133.5,2.0,COULTER GROUP CAMPGROUND,-118.017778,34.322778,,30.0,,,2016
234555,0.0,5.0,0.0,0.0,0.0,155.0,0.0,0.0,79.0,18.0,64.0,2.0,BANDIDO GROUP CAMPGROUND,-118.004722,34.345278,,31.0,,,2016
234577,54.0,0.0,0.0,3.0,379.0,0.0,0.0,0.0,49.0,4.0,17.0,3.0,WAXMYRTLE CAMPGROUND,-124.144167,43.875278,7.018518518518518,,,0.0,2016
234578,37.0,0.0,0.0,4.0,307.0,0.0,0.0,0.0,49.0,4.0,20.0,3.0,LAGOON CAMPGROUND,-124.14027800000001,43.880556,8.297297297297296,,,0.0,2016
234579,18.0,0.0,0.0,1.0,142.0,0.0,0.0,0.0,49.0,3.0,15.5,3.0,BLUEBILL CAMPGROUND,-124.262222,43.447778,7.888888888888889,,,0.0,2016
234587,17.0,0.0,0.0,0.0,372.0,0.0,0.0,0.0,57.0,5.0,44.5,2.0,NORTH FORK (CA),-120.65888899999999,39.270556,21.88235294117647,,,,2016
234589,0.0,2.0,0.0,0.0,0.0,60.0,0.0,0.0,118.0,25.0,104.5,2.0,BIG BEND GROUP (YUBA RIVER),-120.519444,39.306389,,30.0,,,2016
234591,15.0,0.0,0.0,0.0,88.0,5.0,0.0,0.0,45.0,3.0,27.0,2.0,SKILLMAN,-120.79111100000001,39.318611,5.866666666666666,inf,,,2016
234592,27.0,0.0,7.0,0.0,324.0,0.0,63.0,0.0,57.0,6.0,17.0,2.0,INDIAN SPRINGS,-120.56943100000001,39.329339000000004,12.0,,9.0,,2016
234598,10.0,0.0,0.0,0.0,34.0,0.0,0.0,0.0,26.5,2.0,22.0,2.0,PEARCH CREEK CAMPGROUND,-123.52083300000001,41.308889,3.4,,,,2016
234600,0.0,0.0,0.0,1.0,0.0,0.0,0.0,69.0,109.0,3.0,144.0,2.0,PINE MOUNTAIN LOOKOUT,-123.020556,39.366944000000004,,,,69.0,2016
234601,0.0,0.0,0.0,1.0,0.0,0.0,0.0,95.0,84.0,4.0,174.0,2.0,OAK FLAT LOOKOUT,-118.706944,35.53527800000001,,,,95.0,2016
234608,26.0,0.0,0.0,0.0,117.0,0.0,0.0,0.0,19.0,4.0,25.0,2.0,OAK BOTTOM CAMPGROUND,-123.45138899999999,41.377221999999996,4.5,,,,2016
234621,0.0,0.0,0.0,1.0,0.0,0.0,0.0,47.0,139.0,2.0,182.0,2.0,GOLD BUTTE LOOKOUT,-122.082222,44.805278,,,,47.0,2016
234630,0.0,0.0,0.0,1.0,0.0,0.0,0.0,47.0,109.0,4.0,139.0,2.0,BIG ELK GUARD STATION,-122.356944,42.35888900000001,,,,47.0,2016
234631,0.0,0.0,0.0,1.0,0.0,0.0,0.0,37.0,109.0,4.0,129.0,3.0,LODGEPOLE GUARD STATION,-122.378,42.654,,,,37.0,2016
234632,0.0,1.0,0.0,0.0,0.0,14.0,0.0,0.0,97.0,25.0,49.0,2.5,SWAN LAKE KITCHEN,-118.83694399999999,48.517222,,14.0,,,2016
234633,20.0,0.0,0.0,10.0,243.0,0.0,0.0,282.0,34.0,2.0,12.0,2.0,SYCAMORE GROVE (RED BLUFF) CAMPGROUND,-122.20406899999999,40.156053,12.15,,,28.2,2016
234650,35.0,0.0,0.0,0.0,123.0,0.0,0.0,0.0,33.0,2.0,15.0,2.0,MAD RIVER CAMPGROUND,-123.46722199999999,40.403611,3.5142857142857142,,,,2016
234654,0.0,0.0,0.0,1.0,0.0,0.0,0.0,50.0,116.5,5.5,170.0,2.0,SLY GUARD CABIN,-120.59527800000001,38.708611,,,,50.0,2016
234661,0.0,0.0,0.0,1.0,0.0,0.0,0.0,56.0,109.0,3.0,68.0,2.0,FALL RIVER GUARD STATION,-121.63305600000001,43.768333,,,,56.0,2016
234663,0.0,1.0,0.0,0.0,0.0,9.0,0.0,0.0,228.0,15.0,107.0,3.0,PALISADES GROUP CAMPGROUND,-118.71666699999999,37.483333,,9.0,,,2016
234672,17.0,0.0,0.0,7.0,808.0,0.0,0.0,0.0,51.0,4.0,45.5,2.0,UPPER STONY CREEK CAMPGROUND,-118.831667,36.664722,47.529411764705884,,,0.0,2016
234673,0.0,0.0,0.0,1.0,0.0,0.0,0.0,66.0,39.0,2.0,97.0,2.0,SNOW PEAK CABIN,-118.489167,48.573611,,,,66.0,2016
234675,0.0,0.0,0.0,1.0,0.0,0.0,0.0,56.0,189.0,5.0,74.0,2.0,OCHOCO RANGER RENTAL,-120.42638899999999,44.3975,,,,56.0,2016
234682,0.0,0.0,0.0,1.0,0.0,0.0,0.0,33.0,209.0,4.0,37.0,3.0,TUCANNON GUARD STATION,-117.61666699999999,46.25,,,,33.0,2016
234691,24.0,0.0,0.0,0.0,127.0,0.0,0.0,0.0,29.0,4.0,14.0,2.0,FISH LAKE CAMPGROUND,-123.684444,41.264167,5.291666666666667,,,,2016
234692,32.0,0.0,0.0,0.0,100.0,0.0,0.0,0.0,29.0,4.0,15.5,2.0,DILLON CREEK CAMPGROUND,-123.543056,41.573333,3.125,,,,2016
234693,23.0,0.0,0.0,0.0,0.0,36.0,0.0,0.0,99.0,16.0,60.0,3.0,SHEEP BRIDGE,-121.78888899999998,43.734444,0.0,inf,,,2016
234705,0.0,1.0,0.0,0.0,0.0,26.0,0.0,0.0,146.5,24.5,137.0,3.0,GROUSE CREEK GROUP SITE,-120.698889,47.896667,,26.0,,,2016
234709,31.0,0.0,0.0,2.0,6.0,0.0,0.0,0.0,0.0,5.0,136.5,3.0,WISH POOSH CAMPGROUND,-121.08555600000001,47.28,0.1935483870967742,,,0.0,2016
234711,43.0,0.0,0.0,0.0,0.0,0.0,0.0,143.0,89.0,4.0,81.0,2.0,Crescent Lake Campground,-121.97444399999999,43.501944,0.0,,,inf,2016
234719,32.0,0.0,0.0,0.0,219.0,0.0,0.0,0.0,39.0,5.0,18.0,2.0,DRIPPING SPRINGS CAMPGROUND (CA),-116.97083300000001,33.463889,6.84375,,,,2016
234720,4.0,0.0,0.0,0.0,0.0,75.0,0.0,0.0,108.0,20.0,96.0,2.0,BEAR SPRINGS GROUP CAMPGROUND,-121.5325,45.125278,0.0,inf,,,2016
234723,21.0,0.0,0.0,0.0,9.0,0.0,0.0,0.0,10.0,2.0,19.0,1.0,BLACK ROCK EQUESTRIAN CAMPGROUND,-116.38916699999999,34.071667,0.42857142857142855,,,,2016
234729,11.0,0.0,0.0,0.0,173.0,0.0,0.0,0.0,52.56,4.0,60.0,2.0,BIG LAKE WEST CAMPGROUND,-121.882742,44.372164,15.727272727272727,,,,2016
234730,16.0,0.0,0.0,0.0,171.0,0.0,0.0,0.0,38.36,3.0,27.0,2.0,FRENCH PETE CAMPGROUND,-122.208389,44.04225,10.6875,,,,2016
234731,11.0,0.0,0.0,0.0,89.0,0.0,0.0,0.0,34.68,4.0,51.0,2.0,FRISSELL CROSSING CAMPGROUND,-122.079167,43.961667,8.090909090909092,,,,2016
234732,10.0,0.0,0.0,0.0,170.0,0.0,0.0,0.0,32.86,2.0,25.0,2.0,LIMBERLOST CAMPGROUND,-122.053572,44.174021999999994,17.0,,,,2016
234733,13.0,0.0,0.0,0.0,82.0,0.0,0.0,0.0,34.68,4.0,16.5,2.0,SUNNYSIDE CAMPGROUND,-122.21972199999999,44.059722,6.3076923076923075,,,,2016
234736,62.0,0.0,0.0,0.0,308.0,0.0,0.0,0.0,39.0,6.0,17.0,2.0,OAK GROVE CAMPGROUND,-116.79136899999999,33.386525,4.967741935483871,,,,2016
234738,18.0,0.0,0.0,0.0,93.0,0.0,0.0,0.0,55.0,4.0,22.0,3.0,WHITEHORSE CAMPGROUND,-121.14111100000001,39.888056,5.166666666666667,,,,2016
234739,11.0,0.0,0.0,0.0,224.0,0.0,0.0,0.0,45.0,3.0,53.5,2.0,KIT CARSON CAMPGROUND,-119.89461100000001,38.776778,20.363636363636363,,,,2016
234750,0.0,1.0,0.0,0.0,0.0,23.0,0.0,0.0,159.0,28.0,130.0,3.0,JUANITA LAKE GROUP CAMPSITE,-122.12166699999999,41.816111,,23.0,,,2016
234752,144.0,2.0,0.0,4.0,3035.0,51.0,0.0,107.0,44.0,4.0,44.0,2.0,SUNSET CAMPGROUND (CA),-118.964722,36.73777800000001,21.07638888888889,25.5,,26.75,2016
234753,0.0,16.0,0.0,0.0,0.0,528.0,0.0,0.0,80.0,19.0,110.5,3.0,CANYON VIEW GROUP SITES,-118.665278,36.787222,,33.0,,,2016
234756,45.0,0.0,0.0,0.0,738.0,0.0,0.0,0.0,31.0,4.0,33.0,2.0,CHERRY VALLEY,-119.916944,37.985556,16.4,,,,2016
234760,0.0,1.0,0.0,0.0,0.0,15.0,0.0,0.0,129.0,15.0,98.0,3.0,JIM CREEK GROUP CAMPGROUND,-122.5119,42.8648,,15.0,,,2016
234761,10.0,0.0,0.0,0.0,635.0,0.0,0.0,0.0,28.0,3.0,62.0,2.0,LOST CLAIM,-120.04861100000001,37.821111,63.5,,,,2016
234765,18.0,0.0,0.0,0.0,535.0,0.0,0.0,0.0,33.0,3.0,31.0,2.0,Sunset Camp,-122.25,45.818611,29.72222222222222,,,,2016
234779,23.0,0.0,0.0,0.0,292.0,0.0,0.0,0.0,39.0,3.0,20.0,2.0,HAYSTACK CAMPGROUND (EAST SHORE),-121.14638899999999,44.491944000000004,12.695652173913043,,,,2016
234784,0.0,1.0,0.0,0.0,0.0,19.0,0.0,0.0,159.0,15.0,119.0,3.0,ICICLE GROUP CAMPGROUND,-120.807028,47.586110999999995,,19.0,,,2016
249979,36.0,0.0,0.0,0.0,2470.0,0.0,0.0,0.0,22.0,4.0,66.0,2.0,POTWISHA CAMPGROUND,-118.800375,36.517444,68.61111111111111,,,,2016
249982,27.0,0.0,0.0,0.0,1528.0,0.0,0.0,0.0,44.0,4.0,98.5,2.0,BUCKEYE FLAT CAMPGROUND,-118.762597,36.521056,56.592592592592595,,,,2016
249989,27.0,5.0,0.0,0.0,0.0,67.0,0.0,0.0,90.0,16.0,122.0,3.0,EDSON CREEK GROUP CAMPGROUND,-124.410928,42.8152,0.0,13.4,,,2016
250031,61.0,1.0,0.0,0.0,1268.0,13.0,0.0,0.0,34.0,3.0,15.0,2.0,Hyatt Lake Recreation Area,-122.464133,42.166978,20.78688524590164,13.0,,,2016
250032,41.0,0.0,0.0,3.0,1110.0,0.0,0.0,0.0,39.0,4.0,60.0,2.0,LOWER FALLS CAMPGROUND,-121.87845300000001,46.156639,27.073170731707318,,,0.0,2016
250985,58.0,0.0,3.0,0.0,1092.0,0.0,64.0,0.0,39.0,5.0,58.0,2.0,Yakima River Canyon Campgrounds,-120.46138899999998,46.799444,18.82758620689655,,21.333333333333332,,2016
251008,0.0,14.0,0.0,0.0,0.0,544.0,0.0,0.0,80.0,12.0,74.0,2.0,Crystal Springs Campground Mid-Sized Group Sites,-118.961786,36.744675,,38.857142857142854,,,2016
251351,29.0,0.0,0.0,0.0,493.0,0.0,0.0,0.0,39.0,3.0,68.0,2.0,Susan Creek Campground,-122.89333300000001,43.296667,17.0,,,,2016
251357,14.0,0.0,0.0,0.0,172.0,0.0,0.0,0.0,39.0,3.0,13.0,2.0,BOGUS CREEK CAMPGROUND,-122.80444399999999,43.338889,12.285714285714286,,,,2016
251360,0.0,1.0,0.0,0.0,0.0,20.0,0.0,0.0,109.0,25.0,84.0,2.0,TOKETEE GROUP SITE,-122.40388899999999,43.273610999999995,,20.0,,,2016
251362,44.0,0.0,0.0,0.0,452.0,0.0,0.0,0.0,33.0,3.0,17.5,2.0,KANER FLAT CAMPGROUND,-121.12716200000001,47.009899,10.272727272727273,,,,2016
251363,1.0,0.0,0.0,10.0,36.0,0.0,0.0,111.0,51.0,4.0,32.0,2.0,TEN MILE CAMPGROUND (CA),-118.90777800000001,36.794167,36.0,,,11.1,2016
251364,25.0,0.0,0.0,0.0,319.0,0.0,0.0,0.0,39.0,4.0,44.0,2.0,HORSESHOE BEND CAMPGROUND (OR),-122.686944,43.29277800000001,12.76,,,,2016
251365,17.0,0.0,9.0,0.0,653.0,0.0,0.0,0.0,44.0,3.0,39.0,2.0,FALLS CREEK CAMPGROUND,-123.78138899999999,47.43,38.411764705882355,,0.0,,2016
251433,40.0,0.0,0.0,0.0,216.0,0.0,0.0,0.0,37.0,3.0,15.0,3.0,QUINN RIVER CAMPGROUND,-121.83611100000002,43.786111,5.4,,,,2016
251434,20.0,4.0,0.0,58.0,850.0,132.0,0.0,1896.0,88.0,4.0,94.0,3.0,LOST LAKE RESORT AND CAMPGROUND,-121.82194399999999,45.488889,42.5,33.0,,32.689655172413794,2016
251435,23.0,0.0,0.0,0.0,238.0,0.0,0.0,0.0,49.0,4.0,48.5,3.0,WEST SOUTH TWIN CAMPGROUND,-121.772778,43.714721999999995,10.347826086956522,,,,2016
251445,119.0,0.0,0.0,0.0,666.0,0.0,0.0,0.0,59.0,5.0,25.0,3.0,LITTLE BEAVER A CAMPGROUND ,-120.9875,39.745,5.5966386554621845,,,,2016
251446,12.0,0.0,0.0,0.0,163.0,0.0,0.0,0.0,67.5,5.0,24.0,3.0,WYANDOTTE A CAMPGROUND,-120.9875,39.745,13.583333333333334,,,,2016
251447,27.0,0.0,0.0,1.0,590.0,0.0,0.0,0.0,45.0,3.0,83.5,3.0,EAST LAKE CAMPGROUND,-121.211256,43.717658,21.85185185185185,,,0.0,2016
251448,43.0,0.0,0.0,0.0,681.0,0.0,0.0,0.0,41.0,3.0,32.0,3.0,LAVA LAKE CAMPGROUND,-121.768056,43.915,15.837209302325581,,,,2016
251449,31.0,0.0,0.0,0.0,241.0,0.0,0.0,0.0,41.0,3.0,22.0,3.0,ROCK CREEK CAMPGROUND,-121.834167,43.768056,7.774193548387097,,,,2016
251451,22.0,0.0,0.0,0.0,325.0,0.0,0.0,0.0,33.0,2.0,25.0,2.0,SOUTH CAMPGROUND,-121.786569,43.962258,14.772727272727273,,,,2016
251454,9.0,0.0,0.0,0.0,55.0,0.0,0.0,0.0,57.0,2.0,32.0,4.0,Whispering Pines Horse Camp,-123.064722,44.136389,6.111111111111111,,,,2016
251470,15.0,0.0,0.0,1.0,210.0,0.0,0.0,0.0,40.68,4.0,26.5,2.0,WHISPERING FALLS CAMPGROUND,-122.009353,44.687792,14.0,,,0.0,2016
251471,27.0,0.0,0.0,0.0,207.0,0.0,0.0,0.0,29.0,3.0,19.0,2.0,EAGLE ROCK CAMPGROUND,-122.5527,43.311264,7.666666666666667,,,,2016
251472,13.0,0.0,0.0,0.0,73.0,0.0,0.0,0.0,41.0,2.0,30.0,3.0,GRAHAM CORRAL HORSE CAMPGROUND,-123.064722,44.136389,5.615384615384615,,,,2016
251537,47.0,0.0,0.0,2.0,843.0,0.0,0.0,0.0,41.0,3.0,65.0,3.0,LITTLE CRATER CAMPGROUND,-121.243333,43.712222,17.93617021276596,,,0.0,2016
251538,21.0,0.0,0.0,0.0,299.0,0.0,0.0,0.0,45.0,4.0,77.0,3.0,SOUTH TWIN LAKE CAMPGROUND,-123.064722,44.136389,14.238095238095237,,,,2016
251548,61.0,0.0,0.0,0.0,617.0,0.0,0.0,0.0,39.0,3.0,38.0,2.0,THIELSEN VIEW CAMPGROUND,-122.16758600000001,43.169569,10.114754098360656,,,,2016
251566,19.0,0.0,0.0,0.0,287.0,0.0,0.0,0.0,45.0,3.0,53.0,2.0,Pioneer Ford Campground,-121.622222,44.550556,15.105263157894736,,,,2016
251567,18.0,0.0,0.0,1.0,281.0,0.0,0.0,0.0,33.0,4.0,57.0,3.0,Contorta Flat Campground,-121.996528,43.459189,15.61111111111111,,,0.0,2016
251569,22.0,0.0,0.0,1.0,373.0,0.0,0.0,0.0,33.0,3.0,27.0,2.0,COLD SPRINGS CAMPGROUND (OR),-121.630628,44.309186,16.954545454545453,,,0.0,2016
251570,15.0,0.0,0.0,0.0,126.0,0.0,0.0,0.0,33.0,5.0,41.5,2.0,RUJADA CAMPGROUND,-122.7425,43.707221999999994,8.4,,,,2016
251577,7.0,0.0,8.0,0.0,194.0,0.0,148.0,0.0,41.0,3.0,60.0,2.0,ALLEN SPRINGS CAMPGROUND,-121.62733899999999,44.528031,27.714285714285715,,18.5,,2016
251578,12.0,0.0,0.0,0.0,79.0,0.0,0.0,0.0,60.0,3.0,33.0,3.0,WRIGHTS LAKE EQUESTRIAN CAMPGROUND,-120.235206,38.841910999999996,6.583333333333333,,,,2016
251580,54.0,0.0,0.0,0.0,745.0,0.0,0.0,0.0,45.0,4.0,77.0,3.0,CULTUS LAKE CAMPGROUND,-121.833347,43.837697,13.796296296296296,,,,2016
251581,14.0,0.0,0.0,1.0,235.0,0.0,0.0,0.0,29.0,2.0,33.0,3.0,MALLARD MARSH CAMPGROUND,-121.785669,43.96335,16.785714285714285,,,0.0,2016
251582,0.0,1.0,0.0,0.0,0.0,14.0,0.0,0.0,25.5,15.5,54.5,1.5,RED FIR FLAT GROUP CAMPGROUND,-122.25333300000001,41.343889000000004,,14.0,,,2016
251611,0.0,1.0,0.0,0.0,0.0,12.0,0.0,0.0,109.0,23.0,30.0,2.0,FLUMET FLAT GROUP CAMPGROUND,-123.08738600000001,42.116994,,12.0,,,2016
251615,0.0,1.0,0.0,0.0,0.0,34.0,0.0,0.0,127.0,30.0,128.5,2.0,BRIDAL VEIL GROUP AREA AND PICNIC GROUND,-120.4825,38.766389000000004,,34.0,,,2016
251616,31.0,0.0,0.0,1.0,306.0,0.0,0.0,0.0,40.68,4.0,27.0,2.0,SANTIAM FLATS CAMPGROUND,-122.116258,44.711814000000004,9.870967741935484,,,0.0,2016
251712,21.0,0.0,0.0,1.0,202.0,0.0,0.0,0.0,39.0,3.0,12.0,2.0,Fourmile Lake Campground,-122.25,42.47,9.619047619047619,,,0.0,2016
251713,21.0,0.0,0.0,1.0,242.0,0.0,0.0,0.0,40.68,4.0,22.0,2.0,HUMBUG CAMPGROUND,-122.077317,44.770653,11.523809523809524,,,0.0,2016
251722,28.0,0.0,0.0,1.0,454.0,0.0,0.0,0.0,41.0,4.0,51.0,2.0,LITTLE CULTUS CAMPGROUND,-121.863069,43.801019000000004,16.214285714285715,,,0.0,2016
251769,0.0,0.0,0.0,1.0,0.0,0.0,0.0,71.0,89.0,2.0,147.0,2.0,FREMONT POINT CABIN,-120.83444399999999,42.866667,,,,71.0,2016
251855,0.0,0.0,0.0,1.0,0.0,0.0,0.0,15.0,179.0,6.0,29.0,2.0,CROCKER GUARD STATION,-120.42368300000001,39.89353300000001,,,,15.0,2016
251883,15.0,0.0,0.0,1.0,30.0,0.0,0.0,0.0,31.5,2.0,16.5,3.0,KELSAY VALLEY HORSE CAMP,-122.09611399999999,43.318239,2.0,,,0.0,2016
251884,12.0,0.0,0.0,0.0,225.0,0.0,0.0,0.0,29.0,4.0,17.0,2.0,AMERICAN FORKS CAMPGROUND,-121.16243100000001,46.977342,18.75,,,,2016
251885,5.0,0.0,0.0,0.0,93.0,0.0,0.0,0.0,29.0,4.0,27.0,3.0,CANTON CREEK CAMPGROUND,-122.72638899999998,43.307221999999996,18.6,,,,2016
251886,13.0,0.0,0.0,0.0,26.0,0.0,0.0,0.0,29.0,3.0,8.0,2.0,INLET CAMPGROUND,-122.15535,43.312114,2.0,,,,2016
251887,9.0,0.0,0.0,0.0,77.0,0.0,0.0,0.0,29.0,3.0,12.0,2.0,BOULDER FLAT CAMPGROUND,-122.647222,43.055556,8.555555555555555,,,,2016
251894,15.0,0.0,0.0,0.0,37.0,0.0,0.0,0.0,29.0,5.0,18.0,2.0,EAST LEMOLO CAMPGROUND,-122.198022,43.312781,2.466666666666667,,,,2016
251895,5.0,0.0,0.0,0.0,22.0,0.0,0.0,0.0,29.0,3.5,11.5,2.0,BUNKER HILL CAMPGROUND,-122.19721899999999,43.312781,4.4,,,,2016
251906,60.0,1.0,0.0,18.0,3441.0,47.0,0.0,86.0,23.0,3.0,26.0,2.0,SOL DUC HOT SPRINGS RESORT CAMPGROUND,-123.857825,47.966753000000004,57.35,47.0,,4.777777777777778,2016
251907,32.0,0.0,0.0,0.0,172.0,0.0,0.0,0.0,24.0,3.0,10.5,2.0,TOKETEE LAKE CAMPGROUND,-122.4041,43.273817,5.375,,,,2016
